job_number,address,address_house,address_street,latitude,longitude,ycoord,xcoord,bin,bbl,boro,block,lot,dob_type,job_type,job_description,dcp_occ_category,occ_init,occ_prop,dob_occ_init,dob_occ_prop,dcp_status,dob_status,status_date,status_a,status_a_year,status_d,status_p,status_q,status_q_year,status_r,status_x,dob_bldg_type,stories_init,stories_prop,zoningsft_init,zoningsft_prop,units_init,units_prop,units_net,units_net_complete,units_net_incomplete,earliest_effectivedate,latest_effectivedate,latest_certtype,latest_cofo,u_2007_existtotal,u_2008_existtotal,u_2009_existtotal,u_2010pre_existtotal,u_2010post_existtotal,u_2011_existtotal,u_2012_existtotal,u_2013_existtotal,u_2014_existtotal,u_2015_existtotal,u_2016_existtotal,u_2017_existtotal,u_2018_existtotal,unit_change_2007,unit_change_2008,unit_change_2009,unit_change_preapr2010,unit_change_postapr2010,unit_change_2011,unit_change_2012,unit_change_2013,unit_change_2014,unit_change_2015,unit_change_2016,unit_change_2017,unit_change_2018,u_2007_netcomplete,u_2008_netcomplete,u_2009_netcomplete,u_2010pre_netcomplete,u_2010post_netcomplete,u_2011_netcomplete,u_2012_netcomplete,u_2013_netcomplete,u_2014_netcomplete,u_2015_netcomplete,u_2016_netcomplete,u_2017_netcomplete,u_2018_netcomplete,geo_cd,geo_ntacode,geo_ntaname,geo_censusblock,geo_csd,f_pfirms2015_100yr,x_dcpedited,x_mixeduse,x_dup_flag,x_dup_id,x_dup_maxstatusdate,x_dup_maxcofodate,x_geomsource,x_occsource,x_inactive,x_outlier,x_withdrawal,geom
410161612,40-07 NEWTOWN RD,40-07,NEWTOWN RD,40.762639,-73.915201,,,4542733,4006810001,QUEENS,00681,00014,NB,New Building,NEW BUILDING,Other,Empty Lot,Assembly: Other,,A-3,Disapproved,PLAN EXAM - DISAPPROVED,11/03/2008 12:00:00 AM,09/05/2008,2008,09/05/2008,,,,,,OTHERS,0,2,0,1334,0,,,,,,,,,0,0,0,0,0,0,0,0,0,0,0,0,0,0,0,0,0,0,0,0,0,0,0,0,0,0,,,,,,,,,,,,,,,,,,,,,,,,,,,,,,0,
104590541,541 EAST 68 STREET,541,EAST 68 STREET,40.764097,-73.955121,,,1084780,1014800000,MANHATTAN,01480,00001,A1,Alteration,"CONSTRUCT A NEW 14TH FLOOR ABOVE THEEXISTING 12TH FLOOR ROOF(NO 13TH FLOOR)AND NEW MECHANICAL AND ELEVATOREQUIPMENT ROOMS AT THE EXISTING HOSPITAL BUILDING, GREENBERG PAVILION.",Other,Medical and other custodial institutions,Medical and other custodial institutions,H-2,H-2,Complete,SIGNED OFF,02/07/2012 12:00:00 AM,10/31/2006,2006,11/03/2006,03/20/2007,2007-03-21,2007,04/02/2007,02/07/2012,OTHERS,0,26,0,0,,,,,,2009-03-26,2012-02-07,C- CO,0,,,0,0,0,0,0,0,0,0,0,0,0,,,,0,0,0,0,0,0,0,0,0,0,,,,,,,,,,,,,,,,,,,,,,,,,,,,,,0,
121789902,5233 BROADWAY,5233,BROADWAY,40.875256,-73.908950,,,1064688,1022150060,MANHATTAN,02215,00603,A1,Alteration,LEGALIZATION OF CHURCH. OBTAIN NEW CERTIFICATE OF OCCUPANCY.,Other,Commercial,Assembly: Other,COM,A-3,Application in progress,PRE-FILING,10/22/2013 12:00:00 AM,10/22/2013,2013,,,,,,,OTHERS,2,2,2675,2675,1,0,-1,0,,,,,,1,1,1,1,1,1,1,1,1,1,1,1,1,0,0,0,0,0,0,0,0,0,0,0,0,0,2,2,2,2,2,2,2,2,2,2,2,2,2,,,,,,,,,,,,,,,,,0,
320121756,701 QUINCY STREET,701,QUINCY STREET,40.689252,-73.930789,,,3044335,3016260005,BROOKLYN,01626,00051,A1,Alteration,TO CONVERT EXISTING REPAIR SHOP INTO A PLACE OF WORSHIP,Other,Commercial,Assembly: Other,COM,A-3,Application filed,PLAN EXAM - APPROVED,04/12/2010 12:00:00 AM,01/19/2010,2010,01/20/2010,04/12/2010,,,,,OTHERS,2,2,2423,2423,0,0,0,0,,,,,,0,0,0,0,0,0,0,0,0,0,0,0,0,0,0,0,0,0,0,0,0,0,0,0,0,0,0,0,0,0,0,0,0,0,0,0,0,0,0,,,,,,,,,,,,,,,,,0,
421582406,211-04 75 AVENUE,211-04,75 AVENUE,40.737774,-73.760767,,,4444499,4077480040,QUEENS,07748,00400,NB,New Building,NEW 1-STORY PHYSICAL FITNESS CENTER ACCESSORY TO RESIDENTIAL APARTMENT COMPLEX,Other,Empty Lot,Assembly: Other,,A-3,Application filed,PLAN EXAM - APPROVED,07/26/2018 12:00:00 AM,12/12/2017,2017,12/12/2017,07/26/2018,,,,,OTHERS,0,1,0,889628,0,,,,,,,,,0,0,0,0,0,0,0,0,0,0,0,0,0,0,0,0,0,0,0,0,0,0,0,0,0,0,,,,,,,,,,,,,,,,,,,,,,,,,,,,,,0,
421583860,156-12 35 AVENUE,156-12,35 AVENUE,40.765849,-73.808669,,,4119289,4052720002,QUEENS,05272,00028,NB,New Building,NEW BUILDING FOR ONE STORY HOUSE WORSHIP.,Other,Empty Lot,Assembly: Other,,A-3,Disapproved,PLAN EXAM - DISAPPROVED,06/29/2018 12:00:00 AM,12/12/2017,2017,12/12/2017,,,,,,OTHERS,0,1,0,1373,0,,,,,,,,,0,0,0,0,0,0,0,0,0,0,0,0,0,0,0,0,0,0,0,0,0,0,0,0,0,0,,,,,,,,,,,,,,,,,,,,,,,,,,,,,,0,
421612071,242-36 54 AVENUE,242-36,54 AVENUE,40.757798,-73.739474,,,4170259,4081930017,QUEENS,08193,00174,NB,New Building,NEW 2 STORY HOUSE OF WORSHIP & RECTORY WITH CELLAR.,Other,Empty Lot,Assembly: Other,,A-3,Disapproved,PLAN EXAM - DISAPPROVED,09/21/2018 12:00:00 AM,09/18/2018,2018,09/18/2018,,,,,,OTHERS,0,2,0,3744,0,,,,,,,,,0,0,0,0,0,0,0,0,0,0,0,0,0,0,0,0,0,0,0,0,0,0,0,0,0,0,,,,,,,,,,,,,,,,,,,,,,,,,,,,,,0,
420465455,43-12 50 STREET,43-12,50 STREET,40.744233,-73.914694,,,4001289,4001380002,QUEENS,00138,00025,A1,Alteration,"PROPOSED CONVERSION OF FACTORY ON BASEMENT FLOOR TO PHYSICAL CULTURAL ESTABLISHMENT. MINOR PARTITION WORK, INSTALLATION OF PLUMBING FIXTURES, HVAC AND DUCTWORK.  IN CONJUNCTION WITH ALT 812/88",Other,Commercial,Assembly: Other,COM,A-3,Application filed,PLAN EXAM - APPROVED,10/31/2014 12:00:00 AM,07/28/2011,2011,07/28/2011,10/31/2014,,,,,OTHERS,2,2,19714,19714,,,,,,,,,,,,,,,,,,,,,,,,,,,,,,,,,,,,,,,,,,,,,,,,,,,,,,,,,,,,,,,,,0,
420605660,34-49 107TH STREET,34-49,107TH STREET,40.755061,-73.861401,,,4542765,4017490006,QUEENS,01749,00066,NB,New Building,CONSTRUCTING NEW TWO-STORY COMMUNITY FACILITY BUILDING FOR THE LOUIS ARMSTRONG MUSEUM. INSTALLING CONSTRUCTION FENCE.,Other,Empty Lot,Assembly: Other,,A-3,Permit issued,PERMIT ISSUED - ENTIRE JOB/WORK,07/30/2018 12:00:00 AM,12/11/2012,2012,12/11/2012,05/02/2016,2018-01-10,2018,07/30/2018,,OTHERS,0,2,0,8737,0,,,,,,,,,0,0,0,0,0,0,0,0,0,0,0,0,0,0,0,0,0,0,0,0,0,0,0,0,0,0,,,,,,,,,,,,,,,,,,,,,,,,,,,,,,0,
421675930,16-47 HANCOCK STREET,16-47,HANCOCK STREET,40.698182,-73.905867,,,4437785,4035480008,QUEENS,03548,00080,NB,New Building,HEREWITH TO PROPOSE 3 STORY HOUSE OF WORSHIP,Other,Empty Lot,Assembly: Other,,A-3,Application in progress,PRE-FILING,09/11/2018 12:00:00 AM,09/11/2018,2018,,,,,,,OTHERS,0,3,0,5927,0,,,,,,,,,0,0,0,0,0,0,0,0,0,0,0,0,0,0,0,0,0,0,0,0,0,0,0,0,0,0,,,,,,,,,,,,,,,,,,,,,,,,,,,,,,0,
321191731,5 NEW MONTROSE AVENUE,5,NEW MONTROSE AVENUE,40.706544,-73.951795,,,3063630,3024650004,BROOKLYN,02465,00044,NB,New Building,NEW 5 STORY COMMUNITY FACILITY BUILDING,Other,Empty Lot,Assembly: Other,,A-3,Application filed,PLAN EXAM - APPROVED,06/19/2018 12:00:00 AM,11/02/2017,2017,11/03/2017,06/19/2018,,,,,OTHERS,0,5,0,9488,0,,,,,,,,,0,0,0,0,0,0,0,0,0,0,0,0,0,0,0,0,0,0,0,0,0,0,0,0,0,0,,,,,,,,,,,,,,,,,,,,,,,,,,,,,,0,
421458871,189-02 113TH AVE,189-02,113TH AVE,40.698136,-73.764379,,,4221914,4104300022,QUEENS,10430,00229,NB,New Building,PROPOSED NEW 3 STORY PLUS CELLAR MASONRY PLACE OF WORSHIP AS PER PLANS FILED,Other,Empty Lot,Assembly: Other,,A-3,Disapproved,PLAN EXAM - DISAPPROVED,06/22/2018 12:00:00 AM,04/11/2017,2017,04/20/2017,,,,,,OTHERS,0,2,0,24000,0,,,,,,,,,0,0,0,0,0,0,0,0,0,0,0,0,0,0,0,0,0,0,0,0,0,0,0,0,0,0,,,,,,,,,,,,,,,,,,,,,,,,,,,,,,0,
122765800,95 LEONARD ST.,95,LEONARD ST.,40.717066,-74.004430,,,1001910,1001740003,MANHATTAN,00174,00037,A1,Alteration,HEREWITH FILE TO OBTAIN AMEND C/O FOR CHURCH IN CELLAR & 1ST FLOOR WITH NEW PLUMBING FIXTURES AND MECHANICAL VENT,Other,Public,Assembly: Other,PUB,A-3,Permit issued,PERMIT ISSUED - PARTIAL JOB,07/03/2018 12:00:00 AM,06/21/2016,2016,06/21/2016,04/25/2017,2018-07-03,2018,,,OTHERS,9,9,42778,42778,8,8,0,0,,,,,,8,8,8,8,8,8,8,8,8,8,8,8,8,0,0,0,0,0,0,0,0,0,0,0,0,0,8,8,8,8,8,8,8,8,8,8,8,8,8,,,,,,,,,,,,,,,,,0,
321734325,716 LINCOLN PLACE,716,LINCOLN PLACE,40.670851,-73.952488,,,3032611,3012610000,BROOKLYN,01261,00008,NB,New Building,CONSTRUCTION OF TWO STORY BUILDING AS PER PLANS FILED HEREWITH.,Other,Empty Lot,Assembly: Other,,A-3,Application filed,PLAN EXAM - APPROVED,08/30/2018 12:00:00 AM,03/06/2018,2018,03/06/2018,08/30/2018,,,,,OTHERS,0,2,0,8383,0,,,,,,,,,0,0,0,0,0,0,0,0,0,0,0,0,0,0,0,0,0,0,0,0,0,0,0,0,0,0,,,,,,,,,,,,,,,,,,,,,,,,,,,,,,0,
321195292,1770 52 STREET,1770,52 STREET,40.626864,-73.983144,,,3426063,3054730003,BROOKLYN,05473,00032,NB,New Building,NEW 3 STORY SYNAGOGUE AND ONE ACCESSORY DWELLING UNIT,Other,Empty Lot,Assembly: Other,,A-3,Application filed,PLAN EXAM - APPROVED,02/14/2018 12:00:00 AM,09/16/2016,2016,09/16/2016,02/14/2018,,,,,OTHERS,0,4,0,48753,0,1,1,0,,,,,,0,0,0,0,0,0,0,0,0,0,0,0,0,0,0,0,0,0,0,0,0,0,0,0,0,0,-1,-1,-1,-1,-1,-1,-1,-1,-1,-1,-1,-1,-1,,,,,,,,,,,,,,,,,0,
320179873,8711 18 AVENUE,8711,18 AVENUE,40.605142,-74.004851,,,3166588,3063690000,BROOKLYN,06369,00001,NB,New Building,HEREBY FILING NEW BUILDING,Other,Empty Lot,Assembly: Other,,A-3,Permit issued,PERMIT ISSUED - ENTIRE JOB/WORK,07/05/2018 12:00:00 AM,06/29/2010,2010,07/16/2010,04/07/2011,2011-07-14,2011,02/06/2014,,OTHERS,0,6,0,12705,0,,,,,2017-10-03,2018-06-11,T- TCO,0,0,0,0,0,0,0,0,0,0,0,0,0,0,0,0,0,0,0,0,0,0,0,0,0,0,0,,,,,,,,,,,,,,,,,,,,,,,,,,,,,,0,
321813819,557 NOSTRAND AVENUE,557,NOSTRAND AVENUE,40.678157,-73.949706,,,3029785,3012010000,BROOKLYN,01201,00003,A1,Alteration,CHANGE OF USE FROM RETAIL SPACE TO HOUSE OF WORSHIP,Other,Commercial,Assembly: Other,COM,A-3,Disapproved,PLAN EXAM - DISAPPROVED,08/02/2018 12:00:00 AM,07/24/2018,2018,07/24/2018,,,,,,OTHERS,3,3,3767,3867,3,3,0,0,,,,,,3,3,3,3,3,3,3,3,3,3,3,3,3,0,0,0,0,0,0,0,0,0,0,0,0,0,3,3,3,3,3,3,3,3,3,3,3,3,3,,,,,,,,,,,,,,,,,0,
421662043,26-30 18 STREET,26-30,18 STREET,40.773440,-73.927257,,,4020582,4009010005,QUEENS,00901,00054,A1,Alteration,"CHANGE C OF O FROM COMMERCIAL TO COMMUNITY FACILITY AS PER CO#198648, BEING PROPOSED RENOVATIONS AND LEGALIZATION.",Other,Retail,Assembly: Other,C,A-3,Disapproved,PLAN EXAM - DISAPPROVED,08/08/2018 12:00:00 AM,07/30/2018,2018,07/30/2018,,,,,,OTHERS,1,1,2250,2250,,,,,,,,,,,,,,,,,,,,,,,,,,,,,,,,,,,,,,,,,,,,,,,,,,,,,,,,,,,,,,,,,0,
320092671,1387 EAST 96TH STREET,1387,EAST 96TH STREET,40.638563,-73.896349,,,3326755,3082420001,BROOKLYN,08242,00015,A1,Alteration,"FILING FOR NEW CERTIFICATE OF OCCUPANCY FOR CHURCH, DAY CARE, AND SCHOOL.",Other,Public,Assembly: Other,PUB,A-3,Permit issued,PERMIT ISSUED - PARTIAL JOB,10/07/2013 12:00:00 AM,11/06/2009,2009,11/06/2009,02/05/2010,2011-05-17,2011,,,OTHERS,2,2,26171,26171,,,,,,,,,,,,,,,,,,,,,,,,,,,,,,,,,,,,,,,,,,,,,,,,,,,,,,,,,,,,,,,,,0,
500310166,374 RIDGEWOOD AVENUE,374,RIDGEWOOD AVENUE,40.556721,-74.165138,,,5073662,5055280013,STATEN ISLAND,05528,00139,NB,New Building,,Other,Empty Lot,Assembly: Other,,A-3,Complete,SIGNED OFF,12/30/2008 12:00:00 AM,04/23/2001,2001,04/23/2001,07/17/2001,2001-09-18,2001,10/22/2001,12/30/2008,OTHERS,0,2,0,0,0,0,0,0,0,2008-12-30,2008-12-30,C- CO,0,0,0,0,0,0,0,0,0,0,0,0,0,0,0,0,0,0,0,0,0,0,0,0,0,0,0,0,0,0,0,0,0,0,0,0,0,0,0,0,,,,,,,,,,,,,,,,,0,
510046326,5371 AMBOY ROAD,5371,AMBOY ROAD,40.533329,-74.188734,,,5114315,5063320000,STATEN ISLAND,06332,00006,NB,New Building,CONSTRUCTION OF NEW CHURCH TEMP CONSTRUCTION FENCE,Other,Empty Lot,Assembly: Other,,A-3,Disapproved,PLAN EXAM - DISAPPROVED,07/17/2008 12:00:00 AM,06/25/2008,2008,07/17/2008,,,,,,OTHERS,0,1,0,80086,0,0,0,0,,,,,,0,0,0,0,0,0,0,0,0,0,0,0,0,0,0,0,0,0,0,0,0,0,0,0,0,0,0,0,0,0,0,0,0,0,0,0,0,0,0,,,,,,,,,,,,,,,,,0,
310175878,2635 EAST 23 STREET,2635,EAST 23 STREET,40.587769,-73.946725,,,3205176,3074680008,BROOKLYN,07468,00080,NB,New Building,PROPOSED COMMUNITY FACILITY BUILDING AS EXTENSION TO EXISTING CHURCH.,Other,Empty Lot,Assembly: Other,,A-3,Permit issued,PERMIT ISSUED - ENTIRE JOB/WORK,12/08/2017 12:00:00 AM,08/07/2008,2008,08/07/2008,06/16/2009,2010-01-12,2010,01/12/2010,,OTHERS,0,3,0,9909,0,,,,,,,,,0,0,0,0,0,0,0,0,0,0,0,0,0,0,0,0,0,0,0,0,0,0,0,0,0,0,,,,,,,,,,,,,,,,,,,,,,,,,,,,,,0,
310204800,2481 EAST 13 ST,2481,EAST 13 ST,40.590071,-73.956635,,,3202954,3074150004,BROOKLYN,07415,00043,NB,New Building,THREE STORY CHURCH WITH CELLAR AS SHOWN ON DRAWINGS FILED HEREWITH. OBTAIN NEW CERTIFICATE OF OCCUPANCY.,Other,Empty Lot,Assembly: Other,,A-3,Application filed,PLAN EXAM - APPROVED,10/26/2010 12:00:00 AM,09/18/2008,2008,09/18/2008,10/26/2010,,,,,OTHERS,0,3,0,4551,0,,,,,,,,,0,0,0,0,0,0,0,0,0,0,0,0,0,0,0,0,0,0,0,0,0,0,0,0,0,0,,,,,,,,,,,,,,,,,,,,,,,,,,,,,,0,
310202777,583 EAST 23RD STREET,583,EAST 23RD STREET,40.636161,-73.955409,,,3395060,3052230000,BROOKLYN,05223,00002,NB,New Building,FILING HEREWITH TO ERECT NEW TWO STORY BUILDING AS SHOWN ON PLANS FILED HEREWITH.,Other,Empty Lot,Assembly: Other,,A-3,Complete,SIGNED OFF,09/24/2010 12:00:00 AM,09/30/2008,2008,09/30/2008,07/23/2009,2009-08-07,2009,08/20/2009,09/24/2010,OTHERS,0,2,0,4996,0,,,,,2010-05-20,2010-09-24,C- CO,0,0,0,0,0,0,0,0,0,0,0,0,0,0,0,0,0,0,0,0,0,0,0,0,0,0,0,,,,,,,,,,,,,,,,,,,,,,,,,,,,,,0,
510065162,26 CENTRAL AVENUE,26,CENTRAL AVENUE,40.641120,-74.076847,,,5151735,5000060002,STATEN ISLAND,00006,00021,NB,New Building,NEW BUILDING STATEN ISLAND COURT HOUSE,Other,Empty Lot,Assembly: Other,,A-3,Complete,SIGNED OFF,05/17/2017 12:00:00 AM,01/09/2009,2009,01/09/2009,10/02/2009,2009-10-30,2009,11/09/2009,05/17/2017,OTHERS,0,6,0,183215,0,,,,,2015-01-30,2017-05-17,C- CO,0,0,0,0,0,0,0,0,0,0,0,0,0,0,0,0,0,0,0,0,0,0,0,0,0,0,0,,,,,,,,,,,,,,,,,,,,,,,,,,,,,,0,
410231235,22-02 121ST ST.,22-02,121ST ST.,40.779896,-73.846971,,,4099475,4041960002,QUEENS,04196,00021,NB,New Building,NEW WORSHIP HOUSE - BUDDHIST TEMPLE,Other,Empty Lot,Assembly: Other,,A-3,Complete,SIGNED OFF,11/27/2012 12:00:00 AM,03/04/2009,2009,03/24/2009,05/21/2009,2009-07-07,2009,01/05/2010,11/27/2012,OTHERS,0,3,0,8500,0,,,,,2012-06-11,2012-11-27,C- CO,0,0,0,0,0,0,0,0,0,0,0,0,0,0,0,0,0,0,0,0,0,0,0,0,0,0,0,,,,,,,,,,,,,,,,,,,,,,,,,,,,,,0,
420036286,147-37 ASH AVE,147-37,ASH AVE,40.758981,-73.816489,,,4121333,4053770005,QUEENS,05377,00053,NB,New Building,PROPOSED 3 STORY NEW BUILDING.,Other,Empty Lot,Assembly: Other,,A-3,Disapproved,PLAN EXAM - DISAPPROVED,09/24/2012 12:00:00 AM,03/23/2009,2009,03/23/2009,,,,,,OTHERS,0,3,0,8640,0,,,,,,,,,0,0,0,0,0,0,0,0,0,0,0,0,0,0,0,0,0,0,0,0,0,0,0,0,0,0,,,,,,,,,,,,,,,,,,,,,,,,,,,,,,0,
420049708,127-01 FOCH BLVD,127-01,FOCH BLVD,40.675564,-73.810749,,,4252720,4116840003,QUEENS,11684,00038,A1,Alteration,"LEGALIZE HOUSE OF WORSHIP. PROPOSED REAR YARD EXTENSION ON 1ST, 2ND AND 3RD FLOOR. NEW PLUMBING WORK,",Other,Public,Assembly: Other,PUB,A-3,Application filed,PLAN EXAM - APPROVED,01/05/2011 12:00:00 AM,07/13/2009,2009,07/13/2009,01/05/2011,,,,,OTHERS,1,3,3200,5100,,,,,,,,,,,,,,,,,,,,,,,,,,,,,,,,,,,,,,,,,,,,,,,,,,,,,,,,,,,,,,,,,0,
420071530,2125 NAMEOKE AVENUE,2125,NAMEOKE AVENUE,40.607874,-73.752989,,,4311013,4155260002,QUEENS,15526,00022,NB,New Building,NEW CHURCH BUILDING,Other,Empty Lot,Assembly: Other,,A-3,Permit issued,PERMIT ISSUED - ENTIRE JOB/WORK,12/30/2013 12:00:00 AM,08/27/2009,2009,09/21/2009,11/04/2009,2009-12-17,2009,04/15/2010,,OTHERS,0,1,0,7692,0,0,0,0,,,,,,0,0,0,0,0,0,0,0,0,0,0,0,0,0,0,0,0,0,0,0,0,0,0,0,0,0,0,0,0,0,0,0,0,0,0,0,0,0,0,,,,,,,,,,,,,,,,,0,
320067351,926 EAST 92 STREET,926,EAST 92 STREET,40.645906,-73.910243,,,3228527,3081240008,BROOKLYN,08124,00086,A1,Alteration,"LEGALIZATION OF WORK DONE TO CONVERT EXISTING BUILDING TO PLACE OF WORSHIP AND TO REMOVE ECB VIOLATION #:34767648H, 34767646Y AND 34767647X. NEW CERTIFICATE OF OCCUPANCY IS REQUIRED.",Other,Retail,Assembly: Other,C,A-3,Disapproved,PLAN EXAM - DISAPPROVED,09/16/2010 12:00:00 AM,09/03/2009,2009,09/03/2009,,,,,,OTHERS,1,1,3000,3000,,,,,,,,,,,,,,,,,,,,,,,,,,,,,,,,,,,,,,,,,,,,,,,,,,,,,,,,,,,,,,,,,0,
420161247,147-58 77TH ROAD,147-58,77TH ROAD,40.721383,-73.816315,,,4144681,4066880003,QUEENS,06688,00031,NB,New Building,PROPOSED 4 STORY SYNAGOGUE WITH MEZZANINE,Other,Empty Lot,Assembly: Other,,A-3,Permit issued,PERMIT ISSUED - ENTIRE JOB/WORK,03/24/2015 12:00:00 AM,03/11/2010,2010,03/11/2010,02/21/2014,2014-09-25,2014,03/24/2015,,OTHERS,0,3,0,10971,0,,,,,,,,,0,0,0,0,0,0,0,0,0,0,0,0,0,0,0,0,0,0,0,0,0,0,0,0,0,0,,,,,,,,,,,,,,,,,,,,,,,,,,,,,,1,
420245746,80-35 237 STREET,80-35,237 STREET,40.737717,-73.734775,,,4538609,4079230002,QUEENS,07923,00025,NB,New Building,NEW COMMUNITY FACILITY (HOUSE OF WORSHIP),Other,Empty Lot,Assembly: Other,,A-3,Application filed,PLAN EXAM - APPROVED,04/11/2011 12:00:00 AM,08/27/2010,2010,09/01/2010,04/11/2011,,,,,OTHERS,0,2,0,4572,0,,,,,,,,,0,0,0,0,0,0,0,0,0,0,0,0,0,0,0,0,0,0,0,0,0,0,0,0,0,0,,,,,,,,,,,,,,,,,,,,,,,,,,,,,,0,
120556727,228 EAST 125TH STREET,228,EAST 125TH STREET,40.803362,-73.935037,,,1090596,1017890003,MANHATTAN,01789,00036,NB,New Building,PROPOSE TO ERECT A NEW 4 STORY BUILDING AS SHOWN ON DRAWINGS FILED HEREWITH.,Other,Empty Lot,Assembly: Other,,A-3,Permit issued,PERMIT ISSUED - ENTIRE JOB/WORK,06/30/2015 12:00:00 AM,12/15/2010,2010,12/15/2010,04/19/2012,2012-04-30,2012,07/30/2012,,OTHERS,0,4,0,25510,0,,,,,2016-07-20,2018-04-16,T- TCO,0,0,0,0,0,0,0,0,0,0,0,0,0,0,0,0,0,0,0,0,0,0,0,0,0,0,0,,,,,,,,,,,,,,,,,,,,,,,,,,,,,,0,
320253872,364 OVINGTON AVENUE,364,OVINGTON AVENUE,40.634084,-74.024691,,,3398079,3058910004,BROOKLYN,05891,00043,NB,New Building,ERRECT A NEW COMMUNITY FACILITY (HOUSE OF WORSHIP),Other,Empty Lot,Assembly: Other,,A-3,Permit issued,PERMIT ISSUED - ENTIRE JOB/WORK,10/19/2017 12:00:00 AM,12/22/2010,2010,12/22/2010,11/18/2013,2015-06-22,2015,08/31/2016,,OTHERS,0,2,0,6341,0,,,,,,,,,0,0,0,0,0,0,0,0,0,0,0,0,0,0,0,0,0,0,0,0,0,0,0,0,0,0,,,,,,,,,,,,,,,,,,,,,,,,,,,,,,0,
120604676,99 GANSEVOORT STREET,99,GANSEVOORT STREET,40.739386,-74.008967,,,1089239,1006440000,MANHATTAN,00644,00005,NB,New Building,ERECT 9 STORY AND CELLAR NEW BUILDING.,Other,Empty Lot,Assembly: Other,,A-3,Complete,SIGNED OFF,10/06/2017 12:00:00 AM,03/09/2011,2011,03/09/2011,07/27/2012,2011-09-09,2011,08/02/2012,10/06/2017,OTHERS,0,9,0,153351,0,,,,,2014-09-19,2017-10-06,C- CO,0,0,0,0,0,0,0,0,0,0,0,0,0,0,0,0,0,0,0,0,0,0,0,0,0,0,0,,,,,,,,,,,,,,,,,,,,,,,,,,,,,,0,
420344522,45-45 162 STREET,45-45,162 STREET,40.755176,-73.804682,,,4123250,4054410001,QUEENS,05441,00017,A1,Alteration,"TO ERECT A SECOND FLOOR ADDITION ON TOP OF EXISTING ONE STORY PART OF TWO STORY MIXED BUILDING, MAKE MINOR INTERIOR LAYOUT CHANGES AND INSTALL PLUMBING FIXTURES.",Other,Assembly: Other,Assembly: Other,F-1B,A-3,Complete,SIGNED OFF,04/02/2018 12:00:00 AM,04/15/2011,2011,04/15/2011,09/27/2013,2015-08-14,2015,10/20/2015,04/02/2018,OTHERS,2,2,6657,8261,1,2,1,1,0,2018-04-02,2018-04-02,C- CO,2,1,1,1,1,1,1,1,1,1,1,1,1,2,0,0,0,0,0,0,0,0,0,0,0,0,1,0,0,0,0,0,0,0,0,0,0,0,0,1,,,,,,,,,,,,,,,,,0,
420348804,77-11 MAIN STREET,77-11,MAIN STREET,40.721162,-73.818902,,,4545475,4066680005,QUEENS,06668,00053,NB,New Building,NEW BUILDING FOR PLACE OF WORSHIP,Other,Empty Lot,Assembly: Other,,A-3,Permit issued,PERMIT ISSUED - ENTIRE JOB/WORK,06/28/2018 12:00:00 AM,04/26/2011,2011,05/03/2011,05/03/2012,2012-06-08,2012,06/11/2012,,OTHERS,0,3,0,12085,0,,,,,,,,,0,0,0,0,0,0,0,0,0,0,0,0,0,0,0,0,0,0,0,0,0,0,0,0,0,0,,,,,,,,,,,,,,,,,,,,,,,,,,,,,,0,
520068033,28 SUNSET AVENUE,28,SUNSET AVENUE,40.599577,-74.131985,,,5157944,5019850007,STATEN ISLAND,01985,00070,NB,New Building,NEW CHURCH,Other,Empty Lot,Assembly: Other,,A-3,Complete,SIGNED OFF,10/03/2016 12:00:00 AM,06/02/2011,2011,06/20/2011,12/13/2011,2012-01-26,2012,12/12/2013,10/03/2016,OTHERS,0,1,0,15471,0,,,,,2016-06-23,2016-10-03,C- CO,0,0,0,0,0,0,0,0,0,0,0,0,0,0,0,0,0,0,0,0,0,0,0,0,0,0,0,,,,,,,,,,,,,,,,,,,,,,,,,,,,,,0,
320333590,1643 EAST 21ST STREET,1643,EAST 21ST STREET,40.612752,-73.952878,,,3182151,3067680008,BROOKLYN,06768,00084,NB,New Building,PROPOSED CONSTRUCTION OF A NEW 4 STORY SYNOGOGUE BUILDING WITH RABBIS RESIDENCE AS PER PLANS FILED,Other,Empty Lot,Assembly: Other,,A-3,Disapproved,PLAN EXAM - DISAPPROVED,10/24/2013 12:00:00 AM,07/07/2011,2011,07/08/2011,,,,,,OTHERS,0,4,0,12666,0,1,1,0,,,,,,0,0,0,0,0,0,0,0,0,0,0,0,0,0,0,0,0,0,0,0,0,0,0,0,0,0,-1,-1,-1,-1,-1,-1,-1,-1,-1,-1,-1,-1,-1,,,,,,,,,,,,,,,,,0,
420475024,32-05 PARSONS BLVD,32-05,PARSONS BLVD,40.769088,-73.824389,,,4540374,4047890001,QUEENS,04789,00014,NB,New Building,A NEW ONE (1) STORY COMMUNITY BUILDING.,Other,Empty Lot,Assembly: Other,,A-3,Complete,SIGNED OFF,12/08/2015 12:00:00 AM,08/24/2011,2011,08/24/2011,01/09/2012,2012-02-17,2012,04/11/2012,12/08/2015,OTHERS,0,1,0,7084,0,,,,,2015-12-08,2015-12-08,C- CO,0,0,0,0,0,0,0,0,0,0,0,0,0,0,0,0,0,0,0,0,0,0,0,0,0,0,0,,,,,,,,,,,,,,,,,,,,,,,,,,,,,,0,
420493781,246-16 DEEPDALE AVE,246-16,DEEPDALE AVE,40.763453,-73.738774,,,4616449,4082070000,QUEENS,08207,00009,NB,New Building,NEW ONE FAMILY DWELLING UNIT.,Other,Empty Lot,Assembly: Other,,A-3,Complete,SIGNED OFF,02/09/2015 12:00:00 AM,10/17/2011,2011,10/17/2011,03/13/2012,2012-05-04,2012,08/20/2012,02/09/2015,1-2-3 FAMILY,0,2,0,3388,0,1,1,1,0,2015-02-09,2015-02-09,C- CO,1,0,0,0,0,0,0,0,0,0,1,1,1,1,0,0,0,0,0,0,0,0,0,1,0,0,0,-1,-1,-1,-1,-1,-1,-1,-1,-1,0,0,0,0,,,,,,,,,,,,,,,,,0,
420517747,87-17 124 STREET,87-17,124 STREET,40.700187,-73.826259,,,4196117,4093330007,QUEENS,09333,00073,A1,Alteration,TO CONVERT EXISTING NON-CONFORMING USE (PUBLIC GARAGE USE GROUP 16) INTO A HOUSE OF WORSHIP USE GROUP 4. ALL AS PER PLANS FILED HEREWITH.,Other,Commercial,Assembly: Other,COM,A-3,Disapproved,PLAN EXAM - DISAPPROVED,02/10/2012 12:00:00 AM,12/23/2011,2011,02/06/2012,,,,,,OTHERS,1,1,10295,10295,,,,,,,,,,,,,,,,,,,,,,,,,,,,,,,,,,,,,,,,,,,,,,,,,,,,,,,,,,,,,,,,,0,
420523213,103-26 111TH STREET,103-26,111TH STREET,40.685612,-73.831532,,,4541346,4095150001,QUEENS,09515,00017,NB,New Building,ERECT TWO STORY AND CELLAR HOUSE OF WORSHIP NEW BUILDING.,Other,Empty Lot,Assembly: Other,,A-3,Permit issued,PERMIT ISSUED - ENTIRE JOB/WORK,07/10/2017 12:00:00 AM,01/17/2012,2012,01/17/2012,12/12/2012,2012-12-31,2012,03/07/2013,,OTHERS,0,2,0,5364,0,,,,,,,,,0,0,0,0,0,0,0,0,0,0,0,0,0,0,0,0,0,0,0,0,0,0,0,0,0,0,,,,,,,,,,,,,,,,,,,,,,,,,,,,,,0,
121328027,130 EAST 82ND STREET,130,EAST 82ND STREET,40.777095,-73.957925,,,1090553,1015100005,MANHATTAN,01510,00059,NB,New Building,FILING HEREWITH NEW BUILDING AS PER PLANS.,Other,Empty Lot,Assembly: Other,,A-3,Permit issued,PERMIT ISSUED - ENTIRE JOB/WORK,07/25/2018 12:00:00 AM,12/05/2012,2012,12/06/2012,12/24/2013,2014-04-25,2014,06/11/2015,,OTHERS,0,12,0,46282,0,,,,,,,,,0,0,0,0,0,0,0,0,0,0,0,0,0,0,0,0,0,0,0,0,0,0,0,0,0,0,,,,,,,,,,,,,,,,,,,,,,,,,,,,,,0,
320763189,3867 SHORE PARKWAY,3867,SHORE PARKWAY,40.586329,-73.932260,,,3247917,3088060001,BROOKLYN,08806,00017,NB,New Building,"ERECT A NEW 2 STORY AUDITORIUM, DINING HALL, GYMNASIUM IN CONJUNCTION WITH EXISTING SCHOOL.",Other,Empty Lot,Assembly: Other,,A-3,Permit issued,PERMIT ISSUED - ENTIRE JOB/WORK,05/19/2016 12:00:00 AM,05/28/2013,2013,05/28/2013,08/30/2013,2013-11-26,2013,01/21/2014,,OTHERS,0,2,0,32285,0,,,,,,,,,0,0,0,0,0,0,0,0,0,0,0,0,0,0,0,0,0,0,0,0,0,0,0,0,0,0,,,,,,,,,,,,,,,,,,,,,,,,,,,,,,1,
320863231,1679 WEST 1 STREET,1679,WEST 1 STREET,40.607080,-73.974693,,,3175854,3066310004,BROOKLYN,06631,00043,A1,Alteration,CHANGE USAGE OF BASEMENT TO CHILD DAYCARE CENTER AND INSTALLATION OF NEW NON-LOAD BEARING PARTITION WALLS. NEW ADA BATHROOM WITH ASSOCIATED PLUMBING FIXTURE.,Other,Assembly: Other,Assembly: Other,F-1B,A-3,Disapproved,PLAN EXAM - DISAPPROVED,07/02/2013 12:00:00 AM,06/13/2013,2013,06/13/2013,,,,,,OTHERS,2,2,7108,7108,,,,,,,,,,,,,,,,,,,,,,,,,,,,,,,,,,,,,,,,,,,,,,,,,,,,,,,,,,,,,,,,,0,
420901448,154-02 35 AVE,154-02,35 AVE,40.766006,-73.810658,,,4119181,4052650001,QUEENS,05265,00019,NB,New Building,NEW HOUSE OF WORSHIP.,Other,Empty Lot,Assembly: Other,,A-3,Complete,SIGNED OFF,07/13/2017 12:00:00 AM,10/24/2013,2013,10/24/2013,02/19/2014,2015-03-17,2015,07/07/2015,07/13/2017,OTHERS,0,2,0,2535,0,,,,,2017-07-13,2017-07-13,C- CO,0,0,0,0,0,0,0,0,0,0,0,0,0,0,0,0,0,0,0,0,0,0,0,0,0,0,0,,,,,,,,,,,,,,,,,,,,,,,,,,,,,,0,
321018420,360 NEPTUNE AVE,360,NEPTUNE AVE,40.580651,-73.966074,,,3244272,3086620009,BROOKLYN,08662,00097,NB,New Building,ADMINISTRATIVE NEW BUILDING APPLICATION - NO WORK FILED UNDER THIS APPLICATION. APPLICATION FILED IN CONJUNCTION WITH ALT 1 APPLICATION # 320 785 316.,Other,Empty Lot,Assembly: Other,,A-3,Complete,SIGNED OFF,02/02/2017 12:00:00 AM,11/10/2014,2014,11/10/2014,11/18/2014,2015-01-06,2015,01/06/2015,02/02/2017,OTHERS,0,6,0,66869,0,,,,,2017-01-04,2017-02-02,C- CO,0,0,0,0,0,0,0,0,0,0,0,0,0,0,0,0,0,0,0,0,0,0,0,0,0,0,0,,,,,,,,,,,,,,,,,,,,,,,,,,,,,,0,
420652975,35-22 PRINCE STREET,35-22,PRINCE STREET,40.763727,-73.833345,,,4618508,4049460006,QUEENS,04946,00065,NB,New Building,PROPOSED 4-STORY NEW BUILDING WITH CELLAR FOR COMMUNITY FACILITY USE.,Other,Empty Lot,Assembly: Other,,A-3,Permit issued,PERMIT ISSUED - ENTIRE JOB/WORK,06/27/2018 12:00:00 AM,11/21/2014,2014,11/22/2014,07/21/2015,2016-03-07,2016,12/07/2017,,OTHERS,0,4,0,9597,0,,,,,,,,,0,0,0,0,0,0,0,0,0,0,0,0,0,0,0,0,0,0,0,0,0,0,0,0,0,0,,,,,,,,,,,,,,,,,,,,,,,,,,,,,,0,
421071057,88-04 145TH. STREET,88-04,145TH. STREET,40.704175,-73.810977,,,4206968,4096860002,QUEENS,09686,00021,NB,New Building,"NEW MASONRY, CONCRETE BLOCK AND BRICK, THREE STORY TWO FAMILY BUILDING.",Other,Empty Lot,Assembly: Other,,A-3,Disapproved,PLAN EXAM - DISAPPROVED,08/10/2015 12:00:00 AM,12/30/2014,2014,12/30/2014,,,,,,1-2-3 FAMILY,0,3,0,1908,0,3,3,0,,,,,,0,0,0,0,0,0,0,0,0,0,0,0,0,0,0,0,0,0,0,0,0,0,0,0,0,0,-3,-3,-3,-3,-3,-3,-3,-3,-3,-3,-3,-3,-3,,,,,,,,,,,,,,,,,0,
421075794,10-11 READS LANE,10-11,READS LANE,40.604365,-73.743610,,,4298166,4155530002,QUEENS,15553,00028,NB,New Building,NEW 2 STORY  HOUSE OF WORSHIP,Other,Empty Lot,Assembly: Other,,A-3,Disapproved,PLAN EXAM - DISAPPROVED,10/24/2017 12:00:00 AM,01/20/2015,2015,01/20/2015,,,,,,OTHERS,0,2,0,7391,0,,,,,,,,,0,0,0,0,0,0,0,0,0,0,0,0,0,0,0,0,0,0,0,0,0,0,0,0,0,0,,,,,,,,,,,,,,,,,,,,,,,,,,,,,,0,
420951358,99-37 65 AVENUE,99-37,65 AVENUE,40.730105,-73.854003,,,4050867,4021140006,QUEENS,02114,00063,NB,New Building,FILING HERE WITH PLANS AND APPLICATIONS FOR NEW THREE STORY AND CELLAR HOUSE OF WORSHIP.,Other,Empty Lot,Assembly: Other,,A-3,Disapproved,PLAN EXAM - DISAPPROVED,04/28/2014 12:00:00 AM,03/06/2014,2014,03/06/2014,,,,,,OTHERS,0,3,0,3547,0,,,,,,,,,0,0,0,0,0,0,0,0,0,0,0,0,0,0,0,0,0,0,0,0,0,0,0,0,0,0,,,,,,,,,,,,,,,,,,,,,,,,,,,,,,0,
420859823,126-04 133RD AVENUE,126-04,133RD AVENUE,40.670991,-73.812823,,,4256081,4117850003,QUEENS,11785,00032,A1,Alteration,"EXTENSION OF EXIST. BUILDING TO BUILD A COMMUNITY FACILITY BUILDING, INCLUDING THE MANUAL DEMOLITION OF THE EXISTING 2ND FLOOR OF THE BUILDING. NEW BATHROOMS AND COMMUNITY KITCHEN AT CELLAR LEVEL. 1ST FLOOR TO BE USE PER RELIGIOUS CEREMONIES AND COMMUNITY GATHER. THERE IS CHANGE IN USE AND OCCUPANCY.",Residential,Residential,Assembly: Other,RES,A-3,Permit issued,PERMIT ISSUED - ENTIRE JOB/WORK,01/26/2018 12:00:00 AM,03/10/2014,2014,03/10/2014,03/06/2015,2015-04-20,2015,01/21/2016,,OTHERS,2,1,3153,2450,2,0,-2,0,,,,,,2,2,2,2,2,2,2,2,2,2,2,2,2,0,0,0,0,0,0,0,0,0,0,0,0,0,4,4,4,4,4,4,4,4,4,4,4,4,4,,,,,,,,,,,,,,,,,0,
421188173,88-49 179TH PLACE,88-49,179TH PLACE,40.712367,-73.783389,,,4597864,4099150000,QUEENS,09915,00009,NB,New Building,NEW HOUSE OF WORSHIP AND SCHOOL,Other,Empty Lot,Assembly: Other,,A-3,Permit issued,PERMIT ISSUED - PARTIAL JOB,03/28/2018 12:00:00 AM,07/30/2015,2015,07/30/2015,09/02/2016,2017-07-05,2017,,,OTHERS,0,3,0,11937,0,,,,,,,,,0,0,0,0,0,0,0,0,0,0,0,0,0,0,0,0,0,0,0,0,0,0,0,0,0,0,,,,,,,,,,,,,,,,,,,,,,,,,,,,,,0,
321389582,114 SUYDAM STREET,114,SUYDAM STREET,40.698295,-73.928435,,,3425753,3032170001,BROOKLYN,03217,00010,NB,New Building,ERECTION OF NEW 3 STORY BUILDING AS SHOWN ON DRAWINGS FILED HEREWITH.,Other,Empty Lot,Assembly: Other,,A-3,Permit issued,PERMIT ISSUED - ENTIRE JOB/WORK,11/08/2017 12:00:00 AM,05/16/2016,2016,05/16/2016,08/12/2016,2016-10-21,2016,11/08/2017,,OTHERS,0,3,0,64248,0,0,0,0,,,,,,0,0,0,0,0,0,0,0,0,0,0,0,0,0,0,0,0,0,0,0,0,0,0,0,0,0,0,0,0,0,0,0,0,0,0,0,0,0,0,,,,,,,,,,,,,,,,,0,
121204017,415 COLUMBUS AVENUE,415,COLUMBUS AVENUE,,,,,1090575,1011300000,MANHATTAN,01130,00001,NB,New Building,FILING FOR APPROVAL OF NEW BUILDING (GILDER CENTER) AS PER PLANS FILED HEREWITH.,Other,Empty Lot,Assembly: Other,,A-3,Disapproved,PLAN EXAM - DISAPPROVED,11/06/2017 12:00:00 AM,08/14/2017,2017,08/14/2017,,,,,,OTHERS,0,6,0,540000,0,,,,,,,,,0,0,0,0,0,0,0,0,0,0,0,0,0,0,0,0,0,0,0,0,0,0,0,0,0,0,,,,,,,,,,,,,,,,,,,,,,,,,,,,,,0,
421481195,87-17 124 STREET,87-17,124 STREET,40.700187,-73.826259,,,4196117,4093330007,QUEENS,09333,00073,A1,Alteration,TO CONVERT EXISTING NON-CONFORMING USE (PUBLIC GARAGE USE GROUP 8) INTO A HOUSE OF WORSHIP USE GROUP 4 AND OBTAIN A CERTIFICATE OF OCCUPANCY. NO WORK TO BE DONE,Other,Commercial,Assembly: Other,COM,A-3,Disapproved,PLAN EXAM - DISAPPROVED,10/06/2017 12:00:00 AM,09/25/2017,2017,09/25/2017,,,,,,OTHERS,1,1,10469,10469,,,,,,,,,,,,,,,,,,,,,,,,,,,,,,,,,,,,,,,,,,,,,,,,,,,,,,,,,,,,,,,,,0,
421535226,102-07 43 AVENUE,102-07,43 AVENUE,40.747267,-73.862518,,,4048572,4019770000,QUEENS,01977,00004,A1,Alteration,CONVERSION FROM VFW SOCIAL HALL TO CHURCH. ADD HANDICAP LIFT.,Other,Assembly: Other,Assembly: Other,F-1B,A-3,Application filed,PLAN EXAM - IN PROCESS,08/09/2017 12:00:00 AM,08/01/2017,2017,08/01/2017,,,,,,OTHERS,2,2,9240,9240,0,0,0,0,,,,,,0,0,0,0,0,0,0,0,0,0,0,0,0,0,0,0,0,0,0,0,0,0,0,0,0,0,0,0,0,0,0,0,0,0,0,0,0,0,0,,,,,,,,,,,,,,,,,0,
301030024,769 BERGEN STREET,769,BERGEN STREET,40.678312,-73.962887,,,3398037,3011400004,BROOKLYN,01140,00046,NB,New Building,,Other,Empty Lot,Assembly: Other,,A-3,Permit issued,PERMIT ISSUED - ENTIRE JOB/WORK,12/28/2017 12:00:00 AM,03/01/2000,2000,03/06/2000,12/22/2000,2001-03-07,2001,10/08/2003,,OTHERS,0,1,0,2870,0,,,,,,,,,0,0,0,0,0,0,0,0,0,0,0,0,0,0,0,0,0,0,0,0,0,0,0,0,0,0,,,,,,,,,,,,,,,,,,,,,,,,,,,,,,0,
301280192,77 WALLABOUT STREET,77,WALLABOUT STREET,40.699495,-73.958573,,,3849920,3022300005,BROOKLYN,02230,00052,NB,New Building,,Other,Empty Lot,Assembly: Other,,A-3,Complete,SIGNED OFF,04/08/2013 12:00:00 AM,12/14/2001,2001,12/17/2001,06/04/2002,2003-10-03,2003,06/02/2004,04/08/2013,OTHERS,0,6,0,0,0,10,10,10,0,2013-04-08,2013-04-08,C- CO,10,0,0,0,0,0,0,0,10,10,10,10,10,10,0,0,0,0,0,0,0,10,0,0,0,0,0,-10,-10,-10,-10,-10,-10,-10,0,0,0,0,0,0,,,,,,,,,,,,,,,,,0,
320084065,3402 TILDEN AVENUE,3402,TILDEN AVENUE,40.647034,-73.945128,,,3110553,3049190000,BROOKLYN,04919,00001,A1,Alteration,THIS APPLICATION IS FILED TO CONVERT FROM SOCIAL CLUB TO CHURCH. NO CHANGE IN EGRESS.,Other,Public,Assembly: Other,PUB,A-3,Permit issued,PERMIT ISSUED - ENTIRE JOB/WORK,04/19/2018 12:00:00 AM,10/05/2009,2009,10/05/2009,05/11/2011,2011-05-17,2011,09/17/2013,,OTHERS,1,1,3718,3718,,,,,,,,,,,,,,,,,,,,,,,,,,,,,,,,,,,,,,,,,,,,,,,,,,,,,,,,,,,,,,,,,0,
220428320,1912 AMETHYST STREET,1912,AMETHYST STREET,40.847495,-73.868224,,,2047845,2042540001,BRONX,04254,00011,NB,New Building,PROPOSED THREE STORY AND CELLAR HOUSE OF WORSHIP NEW BUILDING,Other,Empty Lot,Assembly: Other,,A-3,Disapproved,PLAN EXAM - DISAPPROVED,03/05/2015 12:00:00 AM,02/26/2015,2015,02/26/2015,,,,,,OTHERS,0,3,0,24015,0,,,,,,,,,0,0,0,0,0,0,0,0,0,0,0,0,0,0,0,0,0,0,0,0,0,0,0,0,0,0,,,,,,,,,,,,,,,,,,,,,,,,,,,,,,0,
302315037,1364 52 STREET,1364,52 STREET,40.632533,-73.992535,,,3138736,3056630003,BROOKLYN,05663,00031,NB,New Building,"NEW COMMUNITY FACILTITY USE BUILDING: SYNAGOGUE (UG-4). CONSTRUCTION CLASS 1-C FIVE STORY, CELLAR, AND PARTIAL SUB-CELLAR.",Other,Empty Lot,Assembly: Other,,A-3,Permit issued,PERMIT ISSUED - ENTIRE JOB/WORK,03/05/2014 12:00:00 AM,03/22/2007,2007,03/22/2007,05/10/2007,2007-07-26,2007,07/26/2007,,OTHERS,0,5,0,27101,0,0,0,0,,,,,,0,0,0,0,0,0,0,0,0,0,0,0,0,0,0,0,0,0,0,0,0,0,0,0,0,0,0,0,0,0,0,0,0,0,0,0,0,0,0,,,,,,,,,,,,,,,,,1,
320006989,2980 WEST 29TH ST,2980,WEST 29TH ST,40.574250,-73.995169,,,3414027,3070510004,BROOKLYN,07051,00042,NB,New Building,FILING HEREWITH FOR NEW TWO STORY BUILDING.,Other,Empty Lot,Assembly: Other,,A-3,Permit issued,PERMIT ISSUED - ENTIRE JOB/WORK,03/20/2013 12:00:00 AM,04/14/2009,2009,04/14/2009,05/05/2011,2011-06-24,2011,06/28/2011,,OTHERS,0,2,0,222307,0,,,,,2013-12-04,2018-05-30,T- TCO,0,0,0,0,0,0,0,0,0,0,0,0,0,0,0,0,0,0,0,0,0,0,0,0,0,0,0,,,,,,,,,,,,,,,,,,,,,,,,,,,,,,0,
320371147,2684 FULTON STREET,2684,FULTON STREET,40.677442,-73.895621,,,3083306,3036710001,BROOKLYN,03671,00019,A1,Alteration,OBTAIN NEW C.O. PROPOSED CHURCH AT 1ST FLOOR.,Other,Commercial,Assembly: Other,COM,A-3,Application in progress,PRE-FILING,01/06/2012 12:00:00 AM,01/06/2012,2012,,,,,,,OTHERS,2,2,2700,2700,2,2,0,0,,,,,,2,2,2,2,2,2,2,2,2,2,2,2,2,0,0,0,0,0,0,0,0,0,0,0,0,0,2,2,2,2,2,2,2,2,2,2,2,2,2,,,,,,,,,,,,,,,,,0,
103315609,119 WEST 124 STREET,119,WEST 124 STREET,40.807452,-73.946788,,,1057822,1019090002,MANHATTAN,01909,00022,NB,New Building,,Other,Empty Lot,Medical and other custodial institutions,,H-2,Complete,SIGNED OFF,06/09/2005 12:00:00 AM,11/18/2002,2002,11/19/2002,04/23/2003,2003-10-31,2003,04/09/2004,06/09/2005,OTHERS,0,6,0,0,0,,,,,,,,,0,0,0,0,0,0,0,0,0,0,0,0,0,0,0,0,0,0,0,0,0,0,0,0,0,0,,,,,,,,,,,,,,,,,,,,,,,,,,,,,,0,
302220166,856 REMSEN AVENUE,856,REMSEN AVENUE,40.646979,-73.913496,,,3397026,3079200000,BROOKLYN,07920,00005,NB,New Building,NEW BUILDING (RETAIL A),Other,Empty Lot,Assembly: Other,,A-3,Complete,SIGNED OFF,07/11/2012 12:00:00 AM,08/29/2006,2006,08/29/2006,07/17/2008,2009-04-07,2009,04/08/2009,07/11/2012,OTHERS,0,2,0,336301,0,0,0,0,0,2012-02-06,2012-07-11,C- CO,0,0,0,0,0,0,0,0,0,0,0,0,0,0,0,0,0,0,0,0,0,0,0,0,0,0,0,0,0,0,0,0,0,0,0,0,0,0,0,0,,,,,,,,,,,,,,,,,0,
210049106,2351 NEWBOLD AVENUE,2351,NEWBOLD AVENUE,40.833997,-73.846764,,,2027165,2038320005,BRONX,03832,00059,NB,New Building,NEW HOUSE OF WORSHIP BUILDING.,Other,Empty Lot,Assembly: Other,,A-3,Permit issued,PERMIT ISSUED - ENTIRE JOB/WORK,12/26/2017 12:00:00 AM,05/08/2008,2008,05/08/2008,09/12/2008,2009-09-21,2009,09/21/2009,,OTHERS,0,4,0,16339,0,,,,,,,,,0,0,0,0,0,0,0,0,0,0,0,0,0,0,0,0,0,0,0,0,0,0,0,0,0,0,,,,,,,,,,,,,,,,,,,,,,,,,,,,,,0,
310175137,742 JEFFERSON AVENUE,742,JEFFERSON AVENUE,40.685841,-73.927749,,,3045880,3016570003,BROOKLYN,01657,00034,NB,New Building,TWO (2) STORY NEW BUILDING.,Other,Empty Lot,Assembly: Other,,A-3,Permit issued,PERMIT ISSUED - ENTIRE JOB/WORK,03/25/2009 12:00:00 AM,07/24/2008,2008,07/24/2008,03/17/2009,2009-03-25,2009,03/25/2009,,OTHERS,0,2,0,11161,0,,,,,,,,,0,0,0,0,0,0,0,0,0,0,0,0,0,0,0,0,0,0,0,0,0,0,0,0,0,0,,,,,,,,,,,,,,,,,,,,,,,,,,,,,,1,
310191342,1703 AVENUE J,1703,AVENUE J,40.625414,-73.959343,,,3179741,3067100007,BROOKLYN,06710,00077,NB,New Building,NEW 3 STORY COMMUNITY FACILITY BUILDING,Other,Empty Lot,Assembly: Other,,A-3,Disapproved,PLAN EXAM - DISAPPROVED,09/17/2008 12:00:00 AM,09/09/2008,2008,09/09/2008,,,,,,OTHERS,0,3,0,18675,0,,,,,,,,,0,0,0,0,0,0,0,0,0,0,0,0,0,0,0,0,0,0,0,0,0,0,0,0,0,0,,,,,,,,,,,,,,,,,,,,,,,,,,,,,,0,
310217039,2248 CHURCH AVENUE,2248,CHURCH AVENUE,40.650427,-73.957785,,,3117228,3051030004,BROOKLYN,05103,00042,NB,New Building,ERECT NEW BUILDING.,Other,Empty Lot,Assembly: Other,,A-3,Application filed,PLAN EXAM - APPROVED,02/09/2009 12:00:00 AM,10/27/2008,2008,10/28/2008,02/09/2009,,,,,OTHERS,0,2,0,78720,0,,,,,,,,,0,0,0,0,0,0,0,0,0,0,0,0,0,0,0,0,0,0,0,0,0,0,0,0,0,0,,,,,,,,,,,,,,,,,,,,,,,,,,,,,,0,
310319731,24 SNYDER AVE.,24,SNYDER AVE.,40.648560,-73.957487,,,3117369,3051090001,BROOKLYN,05109,00018,A1,Alteration,"HEREWITH FILING WORK PREVIOUSLY APPROVED UNDER DOB JOB# 3014736661, WHICH WAS PLAN EXAM APPROVED ON 5/26/04 AND DUE TO ELAPSE TIME OF PLAN APPROVAL WITH NO WORK PERMIT ISSUED, WE ARE HEREWITH REFILING SAME SCOPE OF WORK FOR PERMITTING.",Other,Retail,Assembly: Other,C,A-3,Application filed,PLAN EXAM - APPROVED,03/18/2009 12:00:00 AM,03/18/2009,2009,03/18/2009,03/18/2009,,,,,OTHERS,1,1,5747,5747,,,,,,,,,,,,,,,,,,,,,,,,,,,,,,,,,,,,,,,,,,,,,,,,,,,,,,,,,,,,,,,,,0,
120084513,633 WEST 115TH STREET,633,WEST 115TH STREET,40.807695,-73.965225,,,1057375,1018960005,MANHATTAN,01896,00052,NB,New Building,INSTALLATION OF TEMPORARY FENCE. PROPOSED TO ERECT NEW CHURCH AS SHOWN ON DRAWINGS FILED HEREWITH. PROPOSE TO MAINTAIN PORTION OF FOUNDATION AND FRONT WALL FROM EXISTING BUILDING. FULL DEMOLITION FILED UNDER SEPARATE APPLICATION.,Other,Empty Lot,Assembly: Other,,A-3,Application filed,PLAN EXAM - APPROVED,01/05/2010 12:00:00 AM,06/24/2009,2009,06/24/2009,01/05/2010,,,,,OTHERS,0,3,0,11330,0,,,,,,,,,0,0,0,0,0,0,0,0,0,0,0,0,0,0,0,0,0,0,0,0,0,0,0,0,0,0,,,,,,,,,,,,,,,,,,,,,,,,,,,,,,0,
120089251,10 BATTERY PLACE,10,BATTERY PLACE,40.704892,-74.015689,,,1077335,1000030000,MANHATTAN,00003,00001,NB,New Building,PROPOSE TO CONSTRUCT 1 STORY NEW BUILDING FOR CAROUSEL AS PER PLANS FILED HEREWITH.,Other,Empty Lot,Assembly: Other,,A-3,Complete,SIGNED OFF,11/20/2015 12:00:00 AM,06/26/2009,2009,06/29/2009,08/11/2010,2011-01-12,2011,03/02/2011,11/20/2015,OTHERS,0,1,0,415,0,0,0,0,0,2015-08-19,2015-11-20,C- CO,0,0,0,0,0,0,0,0,0,0,0,0,0,0,0,0,0,0,0,0,0,0,0,0,0,0,0,0,0,0,0,0,0,0,0,0,0,0,0,0,,,,,,,,,,,,,,,,,0,
320092742,922 BERGEN STREET,922,BERGEN STREET,40.676974,-73.956608,,,3028303,3011490004,BROOKLYN,01149,00040,A1,Alteration,"EXTEND REAR OF BUILDING TO PROVIDE A NON COMMERCIAL RECREATION CENTER, THE OCCUPANCY AND USE OF THE EXISTING PART OF REMAINING THE SAME.",Other,Commercial,Assembly: Other,COM,A-3,Permit issued,PERMIT ISSUED - ENTIRE JOB/WORK,12/28/2011 12:00:00 AM,11/06/2009,2009,11/06/2009,04/01/2010,2010-05-03,2010,11/17/2010,,OTHERS,1,1,1000,2000,0,0,0,0,,,,,,0,0,0,0,0,0,0,0,0,0,0,0,0,0,0,0,0,0,0,0,0,0,0,0,0,0,0,0,0,0,0,0,0,0,0,0,0,0,0,,,,,,,,,,,,,,,,,0,
120459798,501 WEST 145 STREET,501,WEST 145 STREET,40.825414,-73.948009,,,1061939,1020770002,MANHATTAN,02077,00029,A1,Alteration,"APPLICATION FILED TO CHANGE EXISTING USE FROM OFFICES, USE GROUP 6, TO COMMERCIAL SPACE, USE GROUP 6, ON 2ND FLOOR AND COMMUNITY HALL, USE GROUP 4 ON 3RD AND 4TH FLOORS. 5TH FLOOR TO REMAIN OFFICE SPACE, USE GROUP 6. NO CHANGE TO EXISTING BUILDING BULK OR EGRESS.",Other,Commercial,Assembly: Other,COM,A-3,Permit issued,PERMIT ISSUED - ENTIRE JOB/WORK,01/23/2012 12:00:00 AM,08/31/2010,2010,08/31/2010,02/08/2011,2012-01-23,2012,01/23/2012,,OTHERS,5,5,11381,11381,,,,,,,,,,,,,,,,,,,,,,,,,,,,,,,,,,,,,,,,,,,,,,,,,,,,,,,,,,,,,,,,,0,
420340517,38-22 54 STREET,38-22,54 STREET,40.749605,-73.908559,,,4539243,4012070005,QUEENS,01207,00055,NB,New Building,TO BUILD TWO STORY NEW BUILDING FOR THE HOUSE OF WORSHIP,Other,Empty Lot,Assembly: Other,,A-3,Disapproved,PLAN EXAM - DISAPPROVED,08/30/2013 12:00:00 AM,04/05/2011,2011,04/06/2011,,,,,,OTHERS,0,2,0,2000,0,,,,,,,,,0,0,0,0,0,0,0,0,0,0,0,0,0,0,0,0,0,0,0,0,0,0,0,0,0,0,,,,,,,,,,,,,,,,,,,,,,,,,,,,,,0,
120789735,508 WEST 25TH STREET,508,WEST 25TH STREET,40.749350,-74.004143,,,1813209,1006960004,MANHATTAN,00696,00040,NB,New Building,NEW BUILDING.,Other,Empty Lot,Assembly: Other,,A-3,Complete,SIGNED OFF,12/17/2013 12:00:00 AM,08/10/2011,2011,08/15/2011,01/09/2012,2012-01-17,2012,01/27/2012,12/17/2013,OTHERS,0,1,0,4000,0,,,,,2013-01-04,2013-12-17,C- CO,0,0,0,0,0,0,0,0,0,0,0,0,0,0,0,0,0,0,0,0,0,0,0,0,0,0,0,,,,,,,,,,,,,,,,,,,,,,,,,,,,,,0,
320399582,5006 BEACH 50 STREET,5006,BEACH 50 STREET,40.578800,-74.010911,,,3394509,3070330000,BROOKLYN,07033,00004,NB,New Building,NEW THREE STORY BUILDING.,Other,Empty Lot,Assembly: Other,,A-3,Disapproved,PLAN EXAM - DISAPPROVED,10/24/2011 12:00:00 AM,09/08/2011,2011,09/27/2011,,,,,,OTHERS,0,3,0,6510,0,,,,,,,,,0,0,0,0,0,0,0,0,0,0,0,0,0,0,0,0,0,0,0,0,0,0,0,0,0,0,,,,,,,,,,,,,,,,,,,,,,,,,,,,,,0,
320373449,2701 AVENUE N,2701,AVENUE N,40.616925,-73.947779,,,3210215,3076630000,BROOKLYN,07663,00006,NB,New Building,PROPOSED NEW 2 STORY HOUSE OF WORSHIP,Other,Empty Lot,Assembly: Other,,A-3,Complete,SIGNED OFF,04/20/2018 12:00:00 AM,01/18/2012,2012,01/18/2012,11/06/2013,2013-12-16,2013,12/16/2013,04/20/2018,OTHERS,0,2,0,8500,0,,,,,2017-12-07,2018-04-20,C- CO,0,0,0,0,0,0,0,0,0,0,0,0,0,0,0,0,0,0,0,0,0,0,0,0,0,0,0,,,,,,,,,,,,,,,,,,,,,,,,,,,,,,0,
320423822,1703 AVE J,1703,AVE J,40.625414,-73.959343,,,3179741,3067100007,BROOKLYN,06710,00077,A1,Alteration,PROPOSING TO CONVERT EXSISTING 2 FAMILY & DOCTORS OFFICE     TO COMMUNITY FACILTY WITH     MINOR PLUMBING & PARTITION WORK AS PER PLAN,Residential,Residential: 1 & 2 Family,Assembly: Other,J-3,A-3,Permit issued,PERMIT ISSUED - ENTIRE JOB/WORK,03/11/2016 12:00:00 AM,01/20/2012,2012,01/20/2012,05/11/2012,2013-02-28,2013,03/11/2016,,OTHERS,3,3,3865,3865,2,,,,,,,,,2,2,2,2,2,2,2,2,2,2,2,2,2,0,0,0,0,0,0,0,0,0,0,0,0,0,,,,,,,,,,,,,,,,,,,,,,,,,,,,,,0,
420530964,192-07 JAMAICA AVENUE,192-07,JAMAICA AVENUE,40.712970,-73.767782,,,4222148,4104480001,QUEENS,10448,00018,A1,Alteration,CHANGE USE FROM FUNERAL HOME TO CHURCH.,Other,Assembly: Other,Assembly: Other,F-1B,A-3,Permit issued,PERMIT ISSUED - ENTIRE JOB/WORK,12/14/2016 12:00:00 AM,02/08/2012,2012,02/08/2012,12/03/2012,2014-12-08,2014,12/08/2014,,OTHERS,2,2,5330,5330,,,,,,,,,,,,,,,,,,,,,,,,,,,,,,,,,,,,,,,,,,,,,,,,,,,,,,,,,,,,,,,,,0,
220174594,5437 FIELDSTON RD.,5437,FIELDSTON RD.,40.902321,-73.901628,,,2084763,2058460172,BRONX,05846,01723,NB,New Building,"DEMOLITION OF EXISTING STRUCTURE AND CONSTRUCTION OF A COMMUNITY FACILITY BUILDING,  HOUSE OF WORSHIP.",Other,Empty Lot,Assembly: Other,,A-3,Application filed,PLAN EXAM - APPROVED,04/12/2013 12:00:00 AM,03/16/2012,2012,03/16/2012,04/12/2013,,,,,OTHERS,0,1,0,3453,0,0,0,0,,,,,,0,0,0,0,0,0,0,0,0,0,0,0,0,0,0,0,0,0,0,0,0,0,0,0,0,0,0,0,0,0,0,0,0,0,0,0,0,0,0,,,,,,,,,,,,,,,,,0,
121048801,154 HESTER STREET,154,HESTER STREET,40.717656,-73.996526,,,1002618,1002040001,MANHATTAN,00204,00016,A1,Alteration,HEREWITH FILING FOR ADDITION TO EXISTING BUILDING.  CHANGE OF OCCUPANCY AND OCCUPANT LOAD.,Other,Public,Assembly: Other,PUB,A-3,Permit issued,PERMIT ISSUED - ENTIRE JOB/WORK,06/08/2016 12:00:00 AM,04/17/2012,2012,04/17/2012,04/16/2014,2015-05-14,2015,06/15/2015,,OTHERS,9,9,44375,45779,1,1,0,4,,2017-07-14,2018-06-12,T- TCO,5,1,1,1,1,1,1,1,1,1,1,1,0,5,0,0,0,0,0,0,0,0,0,0,0,-1,5,1,1,1,1,1,1,1,1,1,1,1,0,5,,,,,,,,,,,,,,,,,0,
220205702,1665 JEROME AVENUE,1665,JEROME AVENUE,40.845913,-73.913638,,,2833073,2028610003,BRONX,02861,00035,NB,New Building,"13 STORY NEW BUILDING STRUCTURE FOR 71 COMMUNITY FACILITY UNITS WITH LIVING ACCOMODATIONS, COMMERCIAL/RETAIL SPACE ON 1ST FLOOR, AND JOB TRAINING FACILITY ON 2ND AND 3RD FLOORS.",Other,Empty Lot,Assembly: Other,,A-3,Disapproved,PLAN EXAM - DISAPPROVED,06/05/2012 12:00:00 AM,05/17/2012,2012,05/17/2012,,,,,,OTHERS,0,13,0,80200,0,71,71,0,,,,,,0,0,0,0,0,0,0,0,0,0,0,0,0,0,0,0,0,0,0,0,0,0,0,0,0,0,-71,-71,-71,-71,-71,-71,-71,-71,-71,-71,-71,-71,-71,,,,,,,,,,,,,,,,,0,
121110421,18 BLEECKER STREET,18,BLEECKER STREET,40.725473,-73.993152,,,1008187,1005210004,MANHATTAN,00521,00043,A1,Alteration,CONVERT EXISTING SCHOOL AND RECTORY TO SCHOOL AND RECTORY WITH DORMITORY AND OFFICES AS SHOWN ON DRAWINGS FILED HEREWITH.INTERIOR DEMO FILED UNDER APPLICAT ION#121012082 AND STRUCTURAL WORK FILED UNDER APPLICATION#121110298.,Other,Public,Assembly: Other,PUB,A-3,Complete,SIGNED OFF,03/30/2015 12:00:00 AM,06/12/2012,2012,06/12/2012,01/25/2013,2013-02-28,2013,05/09/2013,03/30/2015,OTHERS,6,6,28006,27935,,,,,,2014-05-02,2015-03-30,C- CO,0,,,,,,,,,0,0,0,0,0,,,,,,,,,,0,0,0,0,,,,,,,,,,,,,,,,,,,,,,,,,,,,,,0,
320508919,1106 UTICA AVENUE,1106,UTICA AVENUE,40.645953,-73.929774,,,3105280,3047600001,BROOKLYN,04760,00015,NB,New Building,THIS PAA IS TO RESOLVE ENERGY CODE AUDIT OBJECTIONS ONLY.,Other,Empty Lot,Assembly: Other,,A-3,Application filed,PLAN EXAM - APPROVED,08/09/2016 12:00:00 AM,07/12/2012,2012,07/12/2012,08/09/2016,,,,,OTHERS,0,3,0,38308,0,0,0,0,,,,,,0,0,0,0,0,0,0,0,0,0,0,0,0,0,0,0,0,0,0,0,0,0,0,0,0,0,0,0,0,0,0,0,0,0,0,0,0,0,0,,,,,,,,,,,,,,,,,0,
121553274,1395 LEXINGTON AVENUE,1395,LEXINGTON AVENUE,40.783051,-73.952978,,,1048310,1015200005,MANHATTAN,01520,00050,A1,Alteration,CONVERSION AND RENOVATION OF EXISTING HANDBALL COURTS TO A GYMNASIUM ON THE PENTHOUSE LEVEL OF NORTH BUILDING. AMENDED C OF O TO BE OBTAINED.,Other,Commercial,Assembly: Other,COM,A-3,Permit issued,PERMIT ISSUED - ENTIRE JOB/WORK,06/04/2013 12:00:00 AM,03/27/2013,2013,03/27/2013,05/01/2013,2013-06-04,2013,06/04/2013,,OTHERS,11,11,188488,188488,241,241,0,-241,,2017-01-31,2018-06-06,T- TCO,0,241,241,241,241,241,241,241,241,241,241,241,0,0,0,0,0,0,0,0,0,0,0,0,0,-241,0,241,241,241,241,241,241,241,241,241,241,241,0,0,,,,,,,,,,,,,,,,,0,
320516937,316 SARATOGA AVENUE,316,SARATOGA AVENUE,40.674745,-73.916658,,,3038869,3014460004,BROOKLYN,01446,00040,A1,Alteration,ALTERATIONS TO EXISTING MASONRY BUILDING FOR NEW USE AS HOUSE OF WORSHIP AND OBTAIN NEW CERTIFICATE OF OCCUPANCY.,Other,"Industrial, Storage & Utilities",Assembly: Other,B-2,A-3,Permit issued,PERMIT ISSUED - PARTIAL JOB,09/25/2017 12:00:00 AM,04/04/2013,2013,04/04/2013,11/12/2013,2013-12-05,2013,,,OTHERS,1,1,5300,5300,,,,,,,,,,,,,,,,,,,,,,,,,,,,,,,,,,,,,,,,,,,,,,,,,,,,,,,,,,,,,,,,,0,
320834371,121 THAMES STREET,121,THAMES STREET,40.705557,-73.927861,,,3070720,3030100003,BROOKLYN,03010,00037,NB,New Building,"CONSTRUCTING A REINFORSED CONCRETE, STRUCTURAL STEEL AND CONCRETE BLOCK CELLAR, PLUS THREE STORY NEW BUILDING.",Other,Empty Lot,Assembly: Other,,A-3,Disapproved,PLAN EXAM - DISAPPROVED,02/18/2014 12:00:00 AM,07/22/2013,2013,07/22/2013,,,,,,OTHERS,0,3,0,4665,0,0,0,0,,,,,,0,0,0,0,0,0,0,0,0,0,0,0,0,0,0,0,0,0,0,0,0,0,0,0,0,0,0,0,0,0,0,0,0,0,0,0,0,0,0,,,,,,,,,,,,,,,,,0,
121861048,545 WEST 22ND STREET,545,WEST 22ND STREET,40.747527,-74.005836,,,1012324,1006940000,MANHATTAN,00694,00009,A1,Alteration,"APPLICATION FILED TO COMBINE THIS BUILDING WITH THE BUILDING AT 541 WEST 22ND STREET, (LOT 12); RENOVATION THROUGHOUT AND CONSTRUCTION OF MEZZANINE.",Other,Commercial,Assembly: Other,COM,A-3,Disapproved,PLAN EXAM - DISAPPROVED,06/09/2014 12:00:00 AM,12/10/2013,2013,12/10/2013,,,,,,OTHERS,1,1,11883,12569,,,,,,,,,,,,,,,,,,,,,,,,,,,,,,,,,,,,,,,,,,,,,,,,,,,,,,,,,,,,,,,,,0,
420929703,136-20 219 STREET,136-20,219 STREET,40.676575,-73.752028,,,4594918,4130190002,QUEENS,13019,00026,NB,New Building,FILING NB APPLICATION TO DEVELOP A NEW CHURCH BUILDING.,Other,Empty Lot,Assembly: Other,,A-3,Permit issued,PERMIT ISSUED - ENTIRE JOB/WORK,01/26/2016 12:00:00 AM,12/16/2013,2013,12/16/2013,12/26/2014,2015-01-12,2015,02/03/2015,,OTHERS,0,1,0,10199,0,,,,,2016-08-18,2016-12-22,T- TCO,0,0,0,0,0,0,0,0,0,0,0,0,0,0,0,0,0,0,0,0,0,0,0,0,0,0,0,,,,,,,,,,,,,,,,,,,,,,,,,,,,,,0,
320932345,1231 51 STREET,1231,51 STREET,40.634586,-73.994397,,,3138058,3056480006,BROOKLYN,05648,00065,A1,Alteration,REFILE PREVIOUSLY APPROVED AND PERMITED APPLICATION ALT 1727-86 IN ORDER TO OBTAIN CERTIFICATE OF OCCUPANCY,Residential,Residential,Assembly: Other,RES,A-3,Application filed,PLAN EXAM - IN PROCESS,03/03/2014 12:00:00 AM,02/24/2014,2014,02/24/2014,,,,,,OTHERS,4,4,13498,13498,12,8,-4,0,,,,,,12,12,12,12,12,12,12,12,12,12,12,12,12,0,0,0,0,0,0,0,0,0,0,0,0,0,16,16,16,16,16,16,16,16,16,16,16,16,16,,,,,,,,,,,,,,,,,0,
320858041,6202 6 AVENUE,6202,6 AVENUE,40.636926,-74.015252,,,3144036,3058010003,BROOKLYN,05801,00038,A1,Alteration,FILING TO REPLACE ALT I # 310234145 FILED TO CHANGE USE FROM MANUFACTURING TO HOUSE OF WORSHIP AND OBTAIN NEW CERTIFICATE OF OCCUPANCY. PROVIDE HANDICAPPED RAMP.,Other,"Industrial, Storage & Utilities",Assembly: Other,D-1,A-3,Permit issued,PERMIT ISSUED - ENTIRE JOB/WORK,08/04/2017 12:00:00 AM,02/26/2014,2014,02/26/2014,04/22/2014,2014-06-04,2014,06/04/2014,,OTHERS,1,1,20000,20000,,,,,,,,,,,,,,,,,,,,,,,,,,,,,,,,,,,,,,,,,,,,,,,,,,,,,,,,,,,,,,,,,0,
520191818,1556 HYLAN BOULEVARD,1556,HYLAN BOULEVARD,40.590863,-74.088260,,,5164490,5033680002,STATEN ISLAND,03368,00021,NB,New Building,CONSTRUCT A NEW ONE STORY BANK WITH DRIVE THRU. ON/OFF SITE FILL REQUIRED.,Other,Empty Lot,Assembly: Other,,A-3,Complete,SIGNED OFF,02/27/2015 12:00:00 AM,04/09/2014,2014,04/09/2014,07/11/2014,2014-07-28,2014,10/17/2014,02/27/2015,OTHERS,0,1,0,3272,0,,,,,2015-01-06,2015-02-27,C- CO,0,0,0,0,0,0,0,0,0,0,0,0,0,0,0,0,0,0,0,0,0,0,0,0,0,0,0,,,,,,,,,,,,,,,,,,,,,,,,,,,,,,0,
121185378,11 WEST 53RD STREET,11,WEST 53RD STREET,40.761002,-73.977201,,,1081128,1012690002,MANHATTAN,01269,00020,A1,Alteration,APPLICATION FILED HEREWITH TO DOCUMENT EXISTING ZONING FLOOR AREA.  NO WORK TO BE PERFORMED UNDER THIS APPLICATION.  FILED IN CONJUNCTION WITH NB 53 WEST 53RD STREET - #121327224 AS SHOWN ON DRAWINGS FILED HEREWITH.,Other,Assembly: Other,Assembly: Other,F-3,A-3,Permit issued,PERMIT ISSUED - ENTIRE JOB/WORK,10/29/2014 12:00:00 AM,04/10/2014,2014,04/10/2014,07/17/2014,2014-10-29,2014,10/29/2014,,OTHERS,16,16,2,1,,,,,,,,,,,,,,,,,,,,,,,,,,,,,,,,,,,,,,,,,,,,,,,,,,,,,,,,,,,,,,,,,0,
320914533,455 FLATBUSH AVENUE,455,FLATBUSH AVENUE,40.663378,-73.962568,,,3397887,3011830000,BROOKLYN,01183,00001,NB,New Building,FILING FOR NEW PAVILION WITH ACCESSORY MAINTENANCE SHED.,Other,Empty Lot,Assembly: Other,,A-3,Permit issued,PERMIT ISSUED - ENTIRE JOB/WORK,01/05/2016 12:00:00 AM,06/30/2014,2014,06/30/2014,07/02/2015,2015-10-16,2015,01/05/2016,,OTHERS,0,1,0,541,0,,,,,2016-04-28,2018-04-26,T- TCO,0,0,0,0,0,0,0,0,0,0,0,0,0,0,0,0,0,0,0,0,0,0,0,0,0,0,0,,,,,,,,,,,,,,,,,,,,,,,,,,,,,,0,
321012104,182 MINNA STREET,182,MINNA STREET,40.644516,-73.986314,,,3123415,3053020007,BROOKLYN,05302,00074,NB,New Building,NEW 3 STORY AND CELLAR COMMUNITY FACILITY,Other,Empty Lot,Assembly: Other,,A-3,Disapproved,PLAN EXAM - DISAPPROVED,10/20/2014 12:00:00 AM,10/06/2014,2014,10/06/2014,,,,,,OTHERS,0,4,0,20238,0,,,,,,,,,0,0,0,0,0,0,0,0,0,0,0,0,0,0,0,0,0,0,0,0,0,0,0,0,0,0,,,,,,,,,,,,,,,,,,,,,,,,,,,,,,0,
320597369,170 VAN SICLEN AVENUE,170,VAN SICLEN AVENUE,40.675956,-73.891157,,,3088260,3039610001,BROOKLYN,03961,00018,A1,Alteration,COVERT EXISTING SMALL MACHINE SHOP INTO A HOUSE OF WORSHIP. EXISTING TEMPORARY ASSEMBLY #186/14. NEW CERTIFICATE OF OCCUPANCY FOR HOUSE OF WORSHIP.,Other,Commercial,Assembly: Other,COM,A-3,Application filed,PLAN EXAM - IN PROCESS,12/15/2014 12:00:00 AM,12/15/2014,2014,12/15/2014,,,,,,OTHERS,1,1,3900,3900,,,,,,,,,,,,,,,,,,,,,,,,,,,,,,,,,,,,,,,,,,,,,,,,,,,,,,,,,,,,,,,,,0,
421071226,97-16 124TH. STREET,97-16,124TH. STREET,40.692166,-73.822349,,,4199847,4094640001,QUEENS,09464,00014,NB,New Building,"NEW MASONRY, CONCRETE BLOCK AND BRICK, THREE STORY, TWO FAMILY BUILDING.",Other,Empty Lot,Assembly: Other,,A-3,Application filed,PLAN EXAM - IN PROCESS,01/30/2015 12:00:00 AM,12/30/2014,2014,12/30/2014,,,,,,1-2-3 FAMILY,0,3,0,4680,0,2,2,0,,,,,,0,0,0,0,0,0,0,0,0,0,0,0,0,0,0,0,0,0,0,0,0,0,0,0,0,0,-2,-2,-2,-2,-2,-2,-2,-2,-2,-2,-2,-2,-2,,,,,,,,,,,,,,,,,0,
421050258,80-02 209 ST,80-02,209 ST,40.732761,-73.761572,,,4164530,4077820004,QUEENS,07782,00045,NB,New Building,PROPOSED ONE (1) STORY HOUSE OF WORSHIP (SYNAGOGUE)WITH MEZZANINE & CELLAR. OBTAIN NEW CERTIFICATE OF OCCUPANCY.,Other,Empty Lot,Assembly: Other,,A-3,Disapproved,PLAN EXAM - DISAPPROVED,02/27/2015 12:00:00 AM,02/18/2015,2015,02/18/2015,,,,,,OTHERS,0,1,0,2582,0,,,,,,,,,0,0,0,0,0,0,0,0,0,0,0,0,0,0,0,0,0,0,0,0,0,0,0,0,0,0,,,,,,,,,,,,,,,,,,,,,,,,,,,,,,0,
321091607,2533 CONEY ISLAND AVENUE,2533,CONEY ISLAND AVENUE,40.595068,-73.960957,,,3200559,3073710007,BROOKLYN,07371,00072,NB,New Building,"NEW BUILDING APPLICATION TO BUILD GYM  WHICH WILL BE ACCESSORY TO A SCHOOL, TE NT STRUCTURE",Other,Empty Lot,Assembly: Other,,A-3,Permit issued,PERMIT ISSUED - PARTIAL JOB,10/27/2015 12:00:00 AM,03/02/2015,2015,03/02/2015,09/01/2015,2015-10-27,2015,,,OTHERS,0,1,0,5000,0,,,,,,,,,0,0,0,0,0,0,0,0,0,0,0,0,0,0,0,0,0,0,0,0,0,0,0,0,0,0,,,,,,,,,,,,,,,,,,,,,,,,,,,,,,0,
220458813,2208 BOLLER AVENUE,2208,BOLLER AVENUE,40.860472,-73.824683,,,2801169,2051350000,BRONX,05135,00001,NB,New Building,NEW BUILDING,Other,Empty Lot,Assembly: Other,,A-3,Disapproved,PLAN EXAM - DISAPPROVED,05/01/2017 12:00:00 AM,05/21/2015,2015,05/21/2015,,,,,,OTHERS,0,3,0,16643,0,,,,,,,,,0,0,0,0,0,0,0,0,0,0,0,0,0,0,0,0,0,0,0,0,0,0,0,0,0,0,,,,,,,,,,,,,,,,,,,,,,,,,,,,,,0,
220456619,3080 WHITE PLAINS RD,3080,WHITE PLAINS RD,40.870843,-73.867169,,,2055556,2045680002,BRONX,04568,00022,A1,Alteration,"EXTEND EXISTING HOUSE OF WORSHIP INTO ADJACENT BUILDING, REAR & 2ND FLOOR ADDITION.",Other,Assembly: Other,Assembly: Other,F-1B,A-3,Disapproved,PLAN EXAM - DISAPPROVED,11/17/2017 12:00:00 AM,05/29/2015,2015,05/29/2015,,,,,,OTHERS,1,2,8968,12611,,,,,,,,,,,,,,,,,,,,,,,,,,,,,,,,,,,,,,,,,,,,,,,,,,,,,,,,,,,,,,,,,0,
421181198,68-03 ROOSEVELT AVENUE,68-03,ROOSEVELT AVENUE,40.746323,-73.896517,,,4458806,4012230000,QUEENS,01223,00001,NB,New Building,"PROPOSED NEW 6 STORY WITH UNDERGROUND PARKING COMMUNITY FACILITY BUILDING. SUBMITTED HEREWITH FOR ZONING APPROVAL ONLY.  IN ADDITION, WE ARE HEREBY SUBMITTING IN ORDER TO OBTAIN OBJECTION  FOR BSA",Other,Empty Lot,Assembly: Other,,A-3,Disapproved,PLAN EXAM - DISAPPROVED,03/03/2016 12:00:00 AM,07/01/2015,2015,07/01/2015,,,,,,OTHERS,0,6,0,63341,0,,,,,,,,,0,0,0,0,0,0,0,0,0,0,0,0,0,0,0,0,0,0,0,0,0,0,0,0,0,0,,,,,,,,,,,,,,,,,,,,,,,,,,,,,,0,
421211851,143-23 ASH AVE,143-23,ASH AVE,40.757019,-73.820664,,,4539434,4051840001,QUEENS,05184,00010,NB,New Building,TO OBTAIN NEW C/O FOR (5) STORY COMMUNITY FACILITY BUILDING.,Other,Empty Lot,Assembly: Other,,A-3,Disapproved,PLAN EXAM - DISAPPROVED,10/23/2015 12:00:00 AM,09/04/2015,2015,09/04/2015,,,,,,OTHERS,0,5,0,23383,0,0,0,0,,,,,,0,0,0,0,0,0,0,0,0,0,0,0,0,0,0,0,0,0,0,0,0,0,0,0,0,0,0,0,0,0,0,0,0,0,0,0,0,0,0,,,,,,,,,,,,,,,,,0,
421300489,33-73 154TH STREET,33-73,154TH STREET,40.768059,-73.810529,,,4618262,4052390000,QUEENS,05239,00009,NB,New Building,CONSTRUCTION OF A TWO STORY NEW BUILDING WITH CELLAR.,Other,Empty Lot,Assembly: Other,,A-3,Application filed,PLAN EXAM - APPROVED,08/25/2016 12:00:00 AM,04/05/2016,2016,04/07/2016,08/25/2016,,,,,OTHERS,0,2,0,2013,0,1,1,0,,,,,,0,0,0,0,0,0,0,0,0,0,0,0,0,0,0,0,0,0,0,0,0,0,0,0,0,0,-1,-1,-1,-1,-1,-1,-1,-1,-1,-1,-1,-1,-1,,,,,,,,,,,,,,,,,0,
421391005,99-03 207 STREET,99-03,207 STREET,40.713117,-73.752628,,,4232023,4108550002,QUEENS,10855,00021,A1,Alteration,APPLICATION FILED TO CONVERT EXISTING ONE FAMILY DWELLING TO HOUSE OF WORSHIP.,Residential,Residential,Assembly: Other,RES,A-3,Disapproved,PLAN EXAM - DISAPPROVED,11/10/2016 12:00:00 AM,10/25/2016,2016,10/25/2016,,,,,,OTHERS,1,1,823,823,1,1,0,0,,,,,,1,1,1,1,1,1,1,1,1,1,1,1,1,0,0,0,0,0,0,0,0,0,0,0,0,0,1,1,1,1,1,1,1,1,1,1,1,1,1,,,,,,,,,,,,,,,,,0,
321456697,1012 RALPH AVENUE,1012,RALPH AVENUE,40.650313,-73.920548,,,3104205,3047310004,BROOKLYN,04731,00040,A1,Alteration,PROPOSE INTERIOR RENOVATION AND CHANGE OF USE FROM DAY CARE TO ASSEMBLY F1B CHURCH,Other,Commercial,Assembly: Other,COM,A-3,Permit issued,PERMIT ISSUED - ENTIRE JOB/WORK,03/29/2017 12:00:00 AM,11/04/2016,2016,11/04/2016,12/06/2016,2017-02-03,2017,02/23/2017,,OTHERS,2,2,2000,3228,1,1,0,0,,,,,,1,1,1,1,1,1,1,1,1,1,1,1,1,0,0,0,0,0,0,0,0,0,0,0,0,0,1,1,1,1,1,1,1,1,1,1,1,1,1,,,,,,,,,,,,,,,,,0,
421317701,22-51 29 STREET,22-51,29 STREET,40.775766,-73.912982,,,4017593,4008440001,QUEENS,00844,00013,A1,Alteration,ALTERATION TYPE 1 (NO WORK) FILED HEREWITH IN ORDER OBTAIN NEW CERTIFICATE OF OCCUPANCY.,Other,Public,Assembly: Other,PUB,A-3,Application filed,PLAN EXAM - APPROVED,02/16/2017 12:00:00 AM,12/01/2016,2016,12/01/2016,02/16/2017,,,,,OTHERS,2,2,10584,10584,,,,,,,,,,,,,,,,,,,,,,,,,,,,,,,,,,,,,,,,,,,,,,,,,,,,,,,,,,,,,,,,,0,
321189628,2920 WEST 23RD STREET,2920,WEST 23RD STREET,40.575693,-73.990018,,,3321839,3070560001,BROOKLYN,07056,00014,NB,New Building,FILING FOR THREE STORY NEW BUILDING FOR NEW COMMUNITY CENTER AND HEATING PLANT,Other,Empty Lot,Assembly: Other,,A-3,Application filed,PLAN EXAM - APPROVED,02/20/2018 12:00:00 AM,12/12/2016,2016,12/12/2016,02/20/2018,,,,,OTHERS,0,3,0,53976,0,,,,,,,,,0,0,0,0,0,0,0,0,0,0,0,0,0,0,0,0,0,0,0,0,0,0,0,0,0,0,,,,,,,,,,,,,,,,,,,,,,,,,,,,,,0,
420663482,143-23 ASH AVENUE,143-23,ASH AVENUE,40.757019,-73.820664,,,4539434,4051840001,QUEENS,05184,00010,NB,New Building,FILING HEREWITH NEW BUILDING AS PER PLANS.,Other,Empty Lot,Assembly: Other,,A-3,Application filed,PLAN EXAM - APPROVED,03/07/2018 12:00:00 AM,08/02/2017,2017,08/02/2017,03/07/2018,,,,,OTHERS,0,4,0,19023,0,,,,,,,,,0,0,0,0,0,0,0,0,0,0,0,0,0,0,0,0,0,0,0,0,0,0,0,0,0,0,,,,,,,,,,,,,,,,,,,,,,,,,,,,,,0,
220622397,2610 GRAND AVE,2610,GRAND AVE,40.866929,-73.900132,,,2014449,2032050000,BRONX,03205,00009,A1,Alteration,CONVERSION OF DAYCARE INTO A CHURCH & ENCLOSURE OF EXTERIOR STAIR.,Residential,Residential: 1 & 2 Family,Assembly: Other,J-3,A-3,Disapproved,PLAN EXAM - DISAPPROVED,03/26/2018 12:00:00 AM,11/03/2017,2017,11/03/2017,,,,,,OTHERS,2,2,4148,4237,1,,,,,,,,,1,1,1,1,1,1,1,1,1,1,1,1,1,0,0,0,0,0,0,0,0,0,0,0,0,0,,,,,,,,,,,,,,,,,,,,,,,,,,,,,,0,
321507222,127 PENNSYLVANIA AVE,127,PENNSYLVANIA AVE,40.674814,-73.896606,,,3083515,3036870000,BROOKLYN,03687,00001,A1,Alteration,MINOR CHANGES TO EXISTING COMMUNITY FACILITY.  AMENDING CERTIFICATE OF OCCUPANCY FOR ADDITIONAL USES.,Other,Public,Assembly: Other,PUB,A-3,Application filed,PLAN EXAM - APPROVED,03/27/2018 12:00:00 AM,11/17/2017,2017,11/17/2017,03/27/2018,,,,,OTHERS,4,4,32480,32480,,,,,,,,,,,,,,,,,,,,,,,,,,,,,,,,,,,,,,,,,,,,,,,,,,,,,,,,,,,,,,,,,0,
421601975,139-16 219 STREET,139-16,219 STREET,40.672495,-73.754047,,,4280500,4130370004,QUEENS,13037,00046,NB,New Building,SPRINKLER INSTALLATION FOR CHURCH BUILDING,Other,Empty Lot,Assembly: Other,,A-3,Disapproved,PLAN EXAM - DISAPPROVED,02/20/2018 12:00:00 AM,02/09/2018,2018,02/09/2018,,,,,,OTHERS,0,2,0,7613,0,,,,,,,,,0,0,0,0,0,0,0,0,0,0,0,0,0,0,0,0,0,0,0,0,0,0,0,0,0,0,,,,,,,,,,,,,,,,,,,,,,,,,,,,,,0,
320430262,734 JAMAICA AVE.,734,JAMAICA AVE.,40.687772,-73.877302,,,3327186,3041030002,BROOKLYN,04103,00022,A1,Alteration,SEE SECTION 24,Other,Commercial,Assembly: Other,E,A-3,Permit issued,PERMIT ISSUED - ENTIRE JOB/WORK,04/05/2018 12:00:00 AM,02/14/2012,2012,02/14/2012,05/14/2015,2017-04-25,2017,04/25/2017,,OTHERS,2,2,7038,12288,,,,,,,,,,,,,,,,,,,,,,,,,,,,,,,,,,,,,,,,,,,,,,,,,,,,,,,,,,,,,,,,,0,
301177410,3901 14 AVENUE,3901,14 AVENUE,40.639207,-73.984168,,,3124936,3053460000,BROOKLYN,05346,00005,A1,Alteration,ALTERATION 1 CONVERSION FROM WAREHOUSE SPACE TO HOUSE OR WORSHIP AND ACCESSORY CLASSROOMS.,Other,Assembly: Other,Assembly: Other,A-3,A-3,Complete,SIGNED OFF,10/31/2017 12:00:00 AM,06/05/2001,2001,06/07/2001,10/24/2001,2001-11-29,2001,12/13/2001,10/31/2017,OTHERS,2,2,0,0,,,,,,2017-10-31,2017-10-31,C- CO,0,,,,,,,,,,,,0,0,,,,,,,,,,,,,0,,,,,,,,,,,,,,,,,,,,,,,,,,,,,,0,
402438331,216-11 90 AVENUE,216-11,90 AVENUE,40.724651,-73.745041,,,4228027,4106600000,QUEENS,10660,00001,A1,Alteration,"PREVIOUS USE STORE, THE NEW USE HOUSE OF  WORSHIP. SEE COMMENTS 16",Other,Assembly: Other,Assembly: Other,F-1B,A-3,Complete,SIGNED OFF,03/21/2013 12:00:00 AM,08/15/2006,2006,08/15/2006,12/08/2006,2007-04-26,2007,09/02/2009,03/21/2013,OTHERS,2,2,0,0,0,0,0,0,0,2013-02-22,2013-03-21,C- CO,0,0,0,0,0,0,0,0,0,0,0,0,0,0,0,0,0,0,0,0,0,0,0,0,0,0,0,0,0,0,0,0,0,0,0,0,0,0,0,0,,,,,,,,,,,,,,,,,0,
402472114,243-37 MERRICK BOULEVARD,243-37,MERRICK BOULEVARD,40.674165,-73.729188,,,4531646,4129820002,QUEENS,12982,00021,A1,Alteration,CONVERTING 1ST FLOOR STORE INTO DAY CARE FOR 2 YEAR TO 6 YEAR OLD CHILDR EN.,Other,Retail,Medical and other custodial institutions,C,H-2,Complete,SIGNED OFF,04/09/2008 12:00:00 AM,10/11/2006,2006,10/11/2006,05/08/2007,2007-05-24,2007,06/08/2007,04/09/2008,OTHERS,0,2,0,0,,1,,,0,2007-10-12,2008-04-09,C- CO,1,1,1,1,1,1,1,1,1,1,1,1,1,1,,0,0,0,0,0,0,0,0,0,0,0,0,,,,,,,,,,,,,,,,,,,,,,,,,,,,,,0,
421041544,73-05 GRAND AVENUE,73-05,GRAND AVENUE,40.729607,-73.889846,,,4058071,4024910006,QUEENS,02491,00061,A1,Alteration,RENOVATE EXISTING TWO STORY MIXED USE BLDG. ALL WORK TO BE TRANSFERRED FROM 420925173 INCLUDING PLUMBING AND GENERAL CONSTRUCTION.  NEW CERTIFICATE OF OCCUPANCY FOR HOUSE OF WORSHIP /RESIDENTIAL.,Other,Commercial,Assembly: Other,B,A-3,Permit issued,PERMIT ISSUED - ENTIRE JOB/WORK,06/19/2018 12:00:00 AM,10/10/2014,2014,10/10/2014,12/15/2015,2016-09-27,2016,06/19/2018,,OTHERS,2,2,3176,3176,1,1,0,0,,,,,,1,1,1,1,1,1,1,1,1,1,1,1,1,0,0,0,0,0,0,0,0,0,0,0,0,0,1,1,1,1,1,1,1,1,1,1,1,1,1,,,,,,,,,,,,,,,,,0,
510049074,3065 HYLAN BOULEVARD,3065,HYLAN BOULEVARD,40.559489,-74.122394,,,5107659,5046710000,STATEN ISLAND,04671,00001,DM,Demolition,DEMOLITION OF CHURCH OFF SITE FILL,Other,Assembly: Other,Empty Lot,A-3,,Complete (demolition),SIGNED OFF,09/12/2008 12:00:00 AM,07/28/2008,2008,07/29/2008,07/29/2008,2008-08-25,2008,08/25/2008,09/12/2008,OTHERS,2,0,0,0,0,0,0,0,0,2008-08-25,2008-08-25,,,0,0,0,0,0,0,0,0,0,0,0,0,0,0,0,0,0,0,0,0,0,0,0,0,0,0,0,0,0,0,0,0,0,0,0,0,0,0,0,,,,,,,,,,,,,,,,,0,
410152132,222-01 MERRICK BLVD,222-01,MERRICK BLVD,40.678417,-73.747294,,,4279280,4129610001,QUEENS,12961,00018,A1,Alteration,"CONVERTING FROM FUNERAL PARLOR TO COMMUNITY FACILITY-(CHURCH).  -8'0'X 45'0' HORIZONTAL & VERICAL EXTENSION.(1ST & 2ND FLS).  -WORK IN BASEMENT ACCESORY TO CHURCH: TOILETS,KITCHEN, EATING AREA.  -WORK IN FIRST FLOOR: IMPROVEMENT & MAINTENANCE.",Other,Assembly: Other,Assembly: Other,A-3,A-3,Permit issued,PERMIT ISSUED - ENTIRE JOB/WORK,07/25/2011 12:00:00 AM,08/14/2008,2008,08/19/2008,12/01/2008,2009-01-29,2009,10/04/2010,,OTHERS,1,2,2734,3454,,,,,,,,,,,,,,,,,,,,,,,,,,,,,,,,,,,,,,,,,,,,,,,,,,,,,,,,,,,,,,,,,0,
410221433,150-62 78TH ROAD,150-62,78TH ROAD,40.720728,-73.813366,,,4145196,4067110008,QUEENS,06711,00084,A1,Alteration,APPLICATION FILED TO REPLACE ALT-I #402265320 WHICH HAS EXPIRED DUE TO E-FILING. TO CONVERT PORTION OF BUILDING TO COMMUNITY FACILITY AND TO OBTAIN A NEW CERTIFICATE OF OCCUPANCY. ALL WORK PER BSA CALENDAR 23-06 BZ FOR CHANGE OF USE OF EXISTING BUILDING AND USED AS SYNAGOGUE AND ACCESSORY APARTMENT.,Residential,Residential: 1 & 2 Family,Assembly: Other,R-3,A-3,Permit issued,PERMIT ISSUED - ENTIRE JOB/WORK,02/03/2017 12:00:00 AM,02/03/2009,2009,02/03/2009,01/22/2010,2010-03-11,2010,12/19/2012,,OTHERS,3,3,4217,4217,3,1,-2,0,,,,,,3,3,3,3,3,3,3,3,3,3,3,3,3,0,0,0,0,0,0,0,0,0,0,0,0,0,5,5,5,5,5,5,5,5,5,5,5,5,5,,,,,,,,,,,,,,,,,0,
220077173,1181 SHERMAN AVENUE,1181,SHERMAN AVENUE,40.833136,-73.916286,,,2098340,2024560024,BRONX,02456,00240,A1,Alteration,OPEN EXISTING LOT CONVERT TO OPEN PARKING LOT FOR (28) PARKING SPACES,Other,Assembly: Other,Assembly: Other,A-3,A-3,Disapproved,PLAN EXAM - DISAPPROVED,08/30/2010 12:00:00 AM,08/13/2010,2010,08/13/2010,,,,,,OTHERS,1,1,9167,9167,0,0,0,0,,,,,,0,0,0,0,0,0,0,0,0,0,0,0,0,0,0,0,0,0,0,0,0,0,0,0,0,0,0,0,0,0,0,0,0,0,0,0,0,0,0,,,,,,,,,,,,,,,,,0,
420315395,45-27 21 STREET,45-27,21 STREET,40.746563,-73.947861,,,4000578,4000760004,QUEENS,00076,00047,A1,Alteration,"MINOR INTERIOR RENOVATION TO EXISTING CHAPEL BUILDING. MODIFICATION TO BASEMENT OFFICES, TOILETS LAYOUT AND FIRST FLOOR NURSERY, LOBBY AND MAIN SANCTUARY. NO CHANGE TO EGRESS, USE, OR OCCUPANCY.",Other,Assembly: Other,Assembly: Other,A-3,A-3,Application filed,PLAN EXAM - APPROVED,02/11/2011 12:00:00 AM,01/13/2011,2011,01/24/2011,02/11/2011,,,,,OTHERS,2,2,6523,6523,,,,,,,,,,,,,,,,,,,,,,,,,,,,,,,,,,,,,,,,,,,,,,,,,,,,,,,,,,,,,,,,,0,
420548287,80-10 MAIN STREET,80-10,MAIN STREET,40.717464,-73.817025,,,4143577,4066340004,QUEENS,06634,00041,A1,Alteration,NO WORK.  WE NEED TO OBTAIN A PLACE OF ASSEMBLY PERMIT,Other,Retail,Assembly: Other,M,A-3,Disapproved,PLAN EXAM - DISAPPROVED,03/30/2012 12:00:00 AM,03/26/2012,2012,03/26/2012,,,,,,OTHERS,1,1,2912,2912,,,,,,,,,,,,,,,,,,,,,,,,,,,,,,,,,,,,,,,,,,,,,,,,,,,,,,,,,,,,,,,,,0,
320519104,25 SUNNYSIDE AVENUE,25,SUNNYSIDE AVENUE,40.680228,-73.895278,,,3855097,3034880001,BROOKLYN,03488,00017,A1,Alteration,ALTERATION 1 APPLICATION FOR CHANGES IN MEETES AND BOUNDS  TO SATISFY REQUIREMENTS FOR APPROVAL OD SUBDIVISION FILED UNDER 320519131. FILED AS A SEPARATE ZONING LOT AND SEPARATE TAX LOT.,Residential,Residential: 1 & 2 Family,Assembly: Other,R-3,A-3,Disapproved,PLAN EXAM - DISAPPROVED,01/15/2013 12:00:00 AM,11/26/2012,2012,11/26/2012,,,,,,1-2-3 FAMILY,2,2,100,2590,2,2,0,0,,,,,,2,2,2,2,2,2,2,2,2,2,2,2,2,0,0,0,0,0,0,0,0,0,0,0,0,0,2,2,2,2,2,2,2,2,2,2,2,2,2,,,,,,,,,,,,,,,,,0,
321131887,244 4TH AVE.,244,4TH AVE.,40.676690,-73.983546,,,3847340,3004480003,BROOKLYN,00448,00034,A1,Alteration,"TO CONVERT EXISTING MEZZANINE TO SECOND FLOOR IN MERGED LOT #34,",Other,Assembly: Other,Assembly: Other,A-3,A-3,Permit issued,PERMIT ISSUED - ENTIRE JOB/WORK,04/04/2018 12:00:00 AM,05/15/2015,2015,05/15/2015,04/19/2016,2017-03-30,2017,03/30/2017,,OTHERS,3,4,6378,7968,,,,,,,,,,,,,,,,,,,,,,,,,,,,,,,,,,,,,,,,,,,,,,,,,,,,,,,,,,,,,,,,,0,
122623447,40 RECTOR STREET,40,RECTOR STREET,40.708356,-74.014814,,,1088750,1000550750,MANHATTAN,00055,07501,A1,Alteration,"HEREWITH FILING TO AMEND THE EXISTING C/O.  WORK TO INCLUDE INTERIOR RENOVATION PARTIAL CELLAR, 1ST FL AND 2ND FLOOR. TO ACCOMMODATE NEW LAY OUT.",Other,Commercial,Assembly: Other,B,A-3,Application filed,APPLICATION PROCESSED - ENTIRE,12/15/2015 12:00:00 AM,12/15/2015,2015,12/15/2015,,,,,,OTHERS,18,18,431884,431884,,,,,,,,,,,,,,,,,,,,,,,,,,,,,,,,,,,,,,,,,,,,,,,,,,,,,,,,,,,,,,,,,0,
220014721,44 EAST 161 STREET,44,EAST 161 STREET,40.827886,-73.926215,,,2127485,2024910000,BRONX,02491,00001,DM,Demolition,FULL DEMOLITION,Other,Assembly: Other,Empty Lot,A-3,,Complete (demolition),SIGNED OFF,07/15/2010 12:00:00 AM,06/24/2009,2009,10/23/2009,10/23/2009,2009-10-30,2009,10/30/2009,07/15/2010,OTHERS,6,0,0,0,,0,,,,2009-10-30,2009-10-30,,,,,,,,,,,,,,,,,,,,,,,,,,,,,,,,,,,,,,,,,,,,,,,,,,,,,,,,,,0,
320094759,119 PENN STREET,119,PENN STREET,40.702380,-73.958059,,,3060566,3022110005,BROOKLYN,02211,00056,A1,Alteration,"COMMUNITY FACILITY BUILDING,ALTERATION AS PER PLANS.",Other,Assembly: Other,Assembly: Other,A-3,A-3,Permit issued,PERMIT ISSUED - ENTIRE JOB/WORK,10/18/2016 12:00:00 AM,11/18/2009,2009,11/18/2009,05/18/2010,2011-03-29,2011,07/12/2012,,OTHERS,3,5,2895,6700,1,3,2,0,,,,,,1,1,1,1,1,1,1,1,1,1,1,1,1,0,0,0,0,0,0,0,0,0,0,0,0,0,-1,-1,-1,-1,-1,-1,-1,-1,-1,-1,-1,-1,-1,,,,,,,,,,,,,,,,,0,
320181655,346 FRANKLIN AVENUE,346,FRANKLIN AVENUE,40.687300,-73.956911,,,3056319,3019670004,BROOKLYN,01967,00045,A1,Alteration,FIRST FLOOR REAR ENLARGEMENT TO EXISTING COMMERCIAL (BAR) AREA. OBTAIN NEW CERTIFICATE OF OCCUPANCY.,Other,Assembly: Other,Assembly: Other,A-3,A-3,Disapproved,PLAN EXAM - DISAPPROVED,08/30/2011 12:00:00 AM,07/01/2010,2010,07/01/2010,,,,,,OTHERS,4,4,4013,4881,3,3,0,0,,,,,,3,3,3,3,3,3,3,3,3,3,3,3,3,0,0,0,0,0,0,0,0,0,0,0,0,0,3,3,3,3,3,3,3,3,3,3,3,3,3,,,,,,,,,,,,,,,,,0,
120629506,15 MT MORRIS PARK WEST,15,MT MORRIS PARK WEST,40.804830,-73.945475,,,1053368,1017200005,MANHATTAN,01720,00058,A1,Alteration,FILING TO OBTAIN CERTIFICATE OF OCCUPANCY FOR EXISTING LAYOUT AND USE. LAYOUT FILED AND APPROVED UNDER SEPARATE APPLICATION NO. 104545280,Other,Assembly: Other,Assembly: Other,A-3,A-3,Disapproved,PLAN EXAM - DISAPPROVED,04/12/2011 12:00:00 AM,03/11/2011,2011,03/15/2011,,,,,,OTHERS,4,4,26537,26537,,,,,,,,,,,,,,,,,,,,,,,,,,,,,,,,,,,,,,,,,,,,,,,,,,,,,,,,,,,,,,,,,0,
320694021,4202 12 AVENUE,4202,12 AVENUE,40.640190,-73.990347,,,3135856,3055970004,BROOKLYN,05597,00041,A1,Alteration,APPLICATION FILED TO CHANGE OCCUPANCY USE OF EXITING COMMUNITY FACILITY PORTION TO DAY CARE AS SHOW  ON PLANS. NO PHYSICAL WORK PROPOSED UNDER THIS APPLICATION.,Residential,Residential: Multi-Family,Assembly: Other,R-2,A-3,Complete,SIGNED OFF,05/10/2013 12:00:00 AM,01/10/2013,2013,01/10/2013,02/26/2013,2013-04-23,2013,04/23/2013,05/10/2013,OTHERS,4,4,6364,6364,1,1,0,0,0,2013-05-10,2013-05-10,C- CO,1,1,1,1,1,1,1,1,1,1,1,1,1,1,0,0,0,0,0,0,0,0,0,0,0,0,0,1,1,1,1,1,1,1,1,1,1,1,1,1,,,,,,,,,,,,,,,,,0,
220358342,2730 BRUCKNER BLVD,2730,BRUCKNER BLVD,40.829741,-73.833332,,,2079786,2055370000,BRONX,05537,00003,A1,Alteration,REVISED PW1 AND PW1-A SUBMITTED FOR CORRECTION TO SCHEDULE A,Other,Assembly: Other,Assembly: Other,A-3,A-3,Complete,SIGNED OFF,10/19/2017 12:00:00 AM,02/11/2014,2014,02/11/2014,07/15/2014,2015-06-01,2015,11/13/2015,10/19/2017,OTHERS,2,2,15145,229,,,,,,2017-08-03,2017-10-19,C- CO,0,,,,,,,,,,,,0,0,,,,,,,,,,,,,0,,,,,,,,,,,,,,,,,,,,,,,,,,,,,,1,
220416574,5727 BROADWAY,5727,BROADWAY,40.882537,-73.902250,,,2083691,2057600016,BRONX,05760,00165,DM,Demolition,FULL DEMOLITION OF A ONE STORY STUCCO BUILDING,Other,Assembly: Other,Empty Lot,A-3,,Complete (demolition),SIGNED OFF,09/01/2015 12:00:00 AM,11/26/2014,2014,11/26/2014,11/26/2014,2015-04-06,2015,04/06/2015,09/01/2015,OTHERS,1,0,0,0,,0,,,,2015-04-06,2015-04-06,,,,,,,,,,,,,,,,,,,,,,,,,,,,,,,,,,,,,,,,,,,,,,,,,,,,,,,,,,0,
421147752,10-24 154TH STREET,10-24,154TH STREET,40.792838,-73.807161,,,4103094,4045390006,QUEENS,04539,00061,A1,Alteration,CHANGE IN USE FROM A USE GROUP 6A RETAIL ESTABLISHMENT TO A USE GROUP PCE PHYSICAL CULTURE ESTABLISHMENT AND CHANGE THE EGRESS.,Other,Retail,Assembly: Other,M,A-3,Application filed,PLAN EXAM - APPROVED,08/28/2018 12:00:00 AM,04/08/2015,2015,04/08/2015,08/28/2018,,,,,OTHERS,2,2,11728,11728,,,,,,,,,,,,,,,,,,,,,,,,,,,,,,,,,,,,,,,,,,,,,,,,,,,,,,,,,,,,,,,,,0,
220461667,1154 THIERIOT AVENUE,1154,THIERIOT AVENUE,40.829191,-73.863823,,,2024389,2037560003,BRONX,03756,00032,DM,Demolition,THIS JOB IS FILED FOR DEMOLITION OF A 1 STORY GARAGE AS PER PLAN.,Other,Assembly: Other,Empty Lot,A-3,,Application filed,APPLICATION PROCESSED - NO PLAN EXAM,06/04/2015 12:00:00 AM,06/04/2015,2015,06/04/2015,06/04/2015,,,,,1-2-3 FAMILY,1,0,0,0,,0,,,,,,,,,,,,,,,,,,,,,,,,,,,,,,,,,,,,,,,,,,,,,,,,,,,,,,,,,,,,,,,0,
220489273,1050 EAST GUN HILL ROAD,1050,EAST GUN HILL ROAD,40.874462,-73.857309,,,2057230,2046380002,BRONX,04638,00025,A1,Alteration,PROPOSE INTERIOR RENOVATION TO ADD ONE OFFICE AT FIRST FLOOR OF EXISTING BUILDING; CHANGE OF USE FROM NON PROFIT COMMERCIAL CLUB TO HOUSE OF WORSHIP; NO CHANGE OF BULK OR EGRESS.,Other,Retail,Assembly: Other,M,A-3,Permit issued,PERMIT ISSUED - ENTIRE JOB/WORK,02/14/2018 12:00:00 AM,01/26/2016,2016,01/26/2016,08/01/2016,2018-02-14,2018,02/14/2018,,OTHERS,1,1,4283,4283,0,0,0,0,,,,,,0,0,0,0,0,0,0,0,0,0,0,0,0,0,0,0,0,0,0,0,0,0,0,0,0,0,0,0,0,0,0,0,0,0,0,0,0,0,0,,,,,,,,,,,,,,,,,0,
320548494,471 UTICA AVE,471,UTICA AVE,40.661909,-73.931455,,,3099218,3045910006,BROOKLYN,04591,00063,A1,Alteration,1. PROPOSED CHURCH IN EXISTING ONE STORY BUILDING  2. NEW PLUMBING WORK  3. NEW MECHANICAL WORK  4. NEW STRUCTURAL WORK  5. REPAIR EXTERIOR WALLS  6. INTERIOR RENOVATION,Other,Commercial,Assembly: Other,COM,A-3,Permit issued,PERMIT ISSUED - ENTIRE JOB/WORK,05/25/2018 12:00:00 AM,08/24/2012,2012,08/24/2012,11/05/2012,2013-09-04,2013,10/31/2014,,OTHERS,1,1,10000,10000,,,,,,,,,,,,,,,,,,,,,,,,,,,,,,,,,,,,,,,,,,,,,,,,,,,,,,,,,,,,,,,,,0,
321762883,115 THROOP AVENUE,115,THROOP AVENUE,40.700845,-73.944727,,,3061499,3022750000,BROOKLYN,02275,00001,A1,Alteration,NO WORK,Other,Assembly: Other,Assembly: Other,F-1B,A-3,Disapproved,PLAN EXAM - DISAPPROVED,09/14/2018 12:00:00 AM,05/31/2018,2018,05/31/2018,,,,,,OTHERS,2,2,17616,17616,,,,,,,,,,,,,,,,,,,,,,,,,,,,,,,,,,,,,,,,,,,,,,,,,,,,,,,,,,,,,,,,,0,
220343457,1785 NEREID AVE,1785,NEREID AVE,40.898182,-73.850964,,,2071209,2050900003,BRONX,05090,00037,A1,Alteration,CONVERT 2ND FLOOR INTO A CHURCH.,Other,Commercial,Assembly: Other,COM,A-3,Permit issued,PERMIT ISSUED - PARTIAL JOB,05/19/2014 12:00:00 AM,11/13/2013,2013,11/13/2013,04/25/2014,2014-05-19,2014,,,OTHERS,2,2,1825,1825,,,,,,,,,,,,,,,,,,,,,,,,,,,,,,,,,,,,,,,,,,,,,,,,,,,,,,,,,,,,,,,,,0,
302289538,4017 AVENUE P,4017,AVENUE P,40.618269,-73.935552,,,3219270,3078590000,BROOKLYN,07859,00003,A1,Alteration,Convert part of an existing 4 family dwelling to a 2 family and synagogue.,Residential,Residential,Assembly: Other,RES,A-3,Permit issued,PERMIT ISSUED - ENTIRE JOB/WORK,07/25/2018 12:00:00 AM,01/11/2007,2007,01/11/2007,03/13/2007,2007-03-20,2007,04/25/2007,,OTHERS,3,3,4659,7296,4,1,-3,0,,,,,,4,4,4,4,4,4,4,4,4,4,4,4,4,0,0,0,0,0,0,0,0,0,0,0,0,0,7,7,7,7,7,7,7,7,7,7,7,7,7,,,,,,,,,,,,,,,,,0,
302140635,220 CORTELYOU ROAD,220,CORTELYOU ROAD,40.638089,-73.977070,,,3126618,3053860000,BROOKLYN,05386,00007,A1,Alteration,"CONVERT BUILDING INTO A MIKVAH, EXTERIOR WALLS TO BE REPLACES AS PER SEQUENCING ON DRAWING A-5.",Other,Commercial,Assembly: Other,COM,A-3,Permit issued,PERMIT ISSUED - ENTIRE JOB/WORK,07/05/2012 12:00:00 AM,04/05/2006,2006,04/05/2006,08/12/2006,2006-08-28,2006,04/23/2008,,OTHERS,3,3,0,0,2,1,-1,0,,,,,,2,2,2,2,2,2,2,2,2,2,2,2,2,0,0,0,0,0,0,0,0,0,0,0,0,0,3,3,3,3,3,3,3,3,3,3,3,3,3,,,,,,,,,,,,,,,,,0,
301516900,1441 49 STREET,1441,49 STREET,40.633122,-73.988950,,,3137514,3056360006,BROOKLYN,05636,00061,A1,Alteration,Extend Rear of Existing One (1) Family Dwelling and Convert to Synagogue and Day Care Center.,Other,Public,Assembly: Other,PUB,A-3,Permit issued,PERMIT ISSUED - ENTIRE JOB/WORK,08/31/2011 12:00:00 AM,03/13/2003,2003,03/25/2003,05/13/2003,2003-08-18,2003,06/26/2007,,OTHERS,4,4,0,0,2,2,0,0,,2010-10-12,2010-10-12,T- TCO,2,2,2,2,2,2,2,2,2,2,2,2,2,2,0,0,0,0,0,0,0,0,0,0,0,0,0,2,2,2,2,2,2,2,2,2,2,2,2,2,,,,,,,,,,,,,,,,,0,
302149912,881 ROGERS AVENUE,881,ROGERS AVENUE,40.648926,-73.952273,,,3328195,3051080000,BROOKLYN,05108,00001,A1,Alteration,INTERIOR REMODEL AND CHANGE OF USE FROM RETAIL TO CHURCH,Other,Commercial,Assembly: Other,COM,A-3,Complete,SIGNED OFF,09/20/2012 12:00:00 AM,04/07/2006,2006,04/18/2006,04/18/2006,2006-05-05,2006,10/19/2006,09/20/2012,OTHERS,2,2,0,0,,,,,,2012-09-20,2012-09-20,C- CO,0,,,,,,,0,0,0,0,0,0,0,,,,,,,,0,0,0,0,0,0,,,,,,,,,,,,,,,,,,,,,,,,,,,,,,0,
302352790,1914 EAST 8 STREET,1914,EAST 8 STREET,40.602150,-73.963808,,,3425552,3070890001,BROOKLYN,07089,00014,A1,Alteration,"Proposed conversion of existing two story & cellar, synagogue, and two family residence, to Synagogue.",Other,Assembly: Other,Assembly: Other,F-1B,A-3,Permit issued,PERMIT ISSUED - ENTIRE JOB/WORK,03/29/2017 12:00:00 AM,05/29/2007,2007,05/29/2007,08/30/2007,2009-12-03,2009,01/14/2010,,OTHERS,2,2,0,0,,,,,,,,,,,,,,,,,,,,,,,,,,,,,,,,,,,,,,,,,,,,,,,,,,,,,,,,,,,,,,,,,0,
401471153,21-12 30 ROAD,21-12,30 ROAD,40.768955,-73.928269,,,4006319,4005500000,QUEENS,00550,00007,A1,Alteration,"Interior alterations to basement and first floor to include interior demo, as well as a one and two story addition to the existing building.",Other,Assembly: Other,Assembly: Other,F-3,A-3,Permit issued,PERMIT ISSUED - ENTIRE JOB/WORK,07/21/2003 12:00:00 AM,06/07/2002,2002,06/10/2002,08/30/2002,2002-09-06,2002,02/04/2003,,OTHERS,2,2,0,0,,,,,,2008-10-07,2009-07-15,T- TCO,0,,0,0,0,0,0,0,0,0,0,0,0,0,,,0,0,0,0,0,0,0,0,0,0,0,,,,,,,,,,,,,,,,,,,,,,,,,,,,,,0,
401578574,37-27 72 STREET,37-27,72 STREET,40.748168,-73.893872,,,4029778,4012830004,QUEENS,01283,00043,A1,Alteration,FILING HEREWITH CONVERSION FROM A-2 FAMILY DWELLING TO A CHURCH AND RECTORY DW ELLING AS INDICATED ON DRAWINGS.,Residential,Residential: 1 & 2 Family,Assembly: Other,J-3,A-3,Complete,SIGNED OFF,09/24/2009 12:00:00 AM,04/30/2003,2003,04/30/2003,04/30/2003,2003-07-01,2003,10/13/2006,09/24/2009,OTHERS,2,2,0,0,2,1,-1,-1,0,2009-04-03,2009-09-24,C- CO,1,2,2,1,1,1,1,1,1,1,1,1,1,1,0,0,-1,0,0,0,0,0,0,0,0,0,0,3,3,2,2,2,2,2,2,2,2,2,2,2,,,,,,,,,,,,,,,,,0,
401827984,82-10 QUEENS BOULEVARD,82-10,QUEENS BOULEVARD,40.737431,-73.880927,,,4437425,4024750001,QUEENS,02475,00012,A1,Alteration,TO OBTAIN NEW CERTIFICATE OF OCCUPANCY. FILED IN CONJUCTION WITH APPROVE D SUBDIVISION 401751181. PROPOSED PARTIA  L DEMOLITION OF CONNECTING STAIR WITH  EFFECT TO LANDMARK BUILDING.,Other,Assembly: Other,Assembly: Other,F-1B,A-3,Permit issued,PERMIT ISSUED - ENTIRE JOB/WORK,09/08/2016 12:00:00 AM,02/27/2004,2004,03/03/2004,03/03/2004,2004-12-02,2004,12/02/2004,,OTHERS,4,4,0,0,,,,,,,,,,,,,,,,,,,,,,,,,,,,,,,,,,,,,,,,,,,,,,,,,,,,,,,,,,,,,,,,,0,
402289368,42-11 DITMARS BOULEVARD,42-11,DITMARS BOULEVARD,40.771727,-73.904452,,,4015083,4007850006,QUEENS,00785,00063,A1,Alteration,PROPOSE TO CONVERT EXISTING CHURCH SPACEPARTIAL ON FIRST FLOOR TO DAY CA RE FOR CHILDREN AGE (3-6) WITH MINOR PARTITION & INTERIOR FINISHED WORKS AS PER PLAN. A NEW C OF O REQUIRE.,Other,Public,Assembly: Other,PUB,A-3,Complete,SIGNED OFF,02/22/2010 12:00:00 AM,02/10/2006,2006,02/10/2006,08/22/2007,2007-11-16,2007,11/16/2007,02/22/2010,OTHERS,3,3,0,0,0,0,0,0,0,2008-10-15,2010-02-22,C- CO,0,0,10,10,0,0,0,0,0,0,0,0,0,0,0,10,0,-10,0,0,0,0,0,0,0,0,0,0,10,10,0,0,0,0,0,0,0,0,0,0,,,,,,,,,,,,,,,,,0,
402303351,68-52 FRESH POND ROAD,68-52,FRESH POND ROAD,40.703894,-73.895681,,,4085200,4035350002,QUEENS,03535,00024,A1,Alteration,PROPOSED ONE(1) STORY AND CELLAR HORIZONTAL & VERTICAL ENLARGEMENT OF EXISTING BUILDING.,Other,Public,Assembly: Other,PUB,A-3,Permit issued,PERMIT ISSUED - ENTIRE JOB/WORK,06/29/2015 12:00:00 AM,03/13/2006,2006,03/14/2006,08/04/2006,2008-07-24,2008,12/14/2010,,OTHERS,1,1,0,0,0,0,0,0,,,,,,0,0,0,0,0,0,0,0,0,0,0,0,0,0,0,0,0,0,0,0,0,0,0,0,0,0,0,0,0,0,0,0,0,0,0,0,0,0,0,,,,,,,,,,,,,,,,,0,
500818760,44 BRUNSWICK STREET,44,BRUNSWICK STREET,40.583953,-74.158336,,,5039528,5023970021,STATEN ISLAND,02397,00212,A1,Alteration,APPLICATION IS FILED FOR THE CONVERSION FROM HOME OCCUPANCY (DENTAL OFFICE) TO SYNAGOGUE WITH ACCESSORY RABBI RESIDENCE. APPLICATION ALSO FILED TO REMOVE VIO LATION NUMBER 344494066R. ALL WORK AS PER PLANS SUBMITTED HEREWITH.,Residential,Residential: 1 & 2 Family,Assembly: Other,J-3,A-3,Complete,SIGNED OFF,06/23/2014 12:00:00 AM,01/24/2006,2006,01/24/2006,02/07/2006,2006-02-15,2006,07/12/2006,06/23/2014,1-2-3 FAMILY,2,2,0,0,2,1,-1,-1,0,2013-11-13,2014-06-23,C- CO,1,2,2,2,2,2,2,2,1,1,1,1,1,1,0,0,0,0,0,0,0,-1,0,0,0,0,0,3,3,3,3,3,3,3,2,2,2,2,2,2,,,,,,,,,,,,,,,,,0,
301126966,1033 GLENMORE AVENUE,1033,GLENMORE AVENUE,40.676735,-73.871857,,,3327396,3041950004,BROOKLYN,04195,00040,A1,Alteration,FILING FOR THE ADDITION OF CELLAR 1ST 2N D 3RD 4TH ROOF FLOORS COMBINATI N OF 3 ONE STORY GARAGES INTO 1 COMMUNIT Y CENTER UG4 INSTALLATION OF NON BEARNG PARTITIONS NEW PLUMBING FIXTURES & PIPIN G & NEW MECHANICAL HVAC SYSTEMS ADDING XTENSION TO ROOF REMVOAL & INSTALLATION OF MASONRY WALLS INSTALLATION OF CHIMNEY,Other,"Industrial, Storage & Utilities",Assembly: Other,B-2,A-3,Permit issued,PERMIT ISSUED - ENTIRE JOB/WORK,11/06/2017 12:00:00 AM,03/19/2002,2002,03/19/2002,03/19/2002,2002-05-13,2002,12/30/2005,,OTHERS,1,4,0,0,0,0,0,0,,,,,,0,0,0,0,0,0,0,0,0,0,0,0,0,0,0,0,0,0,0,0,0,0,0,0,0,0,0,0,0,0,0,0,0,0,0,0,0,0,0,,,,,,,,,,,,,,,,,0,
302279656,1461 SCHENECTADY AVENUE,1461,SCHENECTADY AVENUE,40.636874,-73.931712,,,3106490,3047860004,BROOKLYN,04786,00043,A1,Alteration,"CHANGE OF EXISTING MANUFACTURING BUILDING INTO A CHURCH, PARTITION AND PLUMBING WORK, OBTAIN A NEW C OF O",Other,"Industrial, Storage & Utilities",Assembly: Other,B-1,A-3,Permit issued,PERMIT ISSUED - ENTIRE JOB/WORK,08/26/2013 12:00:00 AM,01/30/2007,2007,01/30/2007,03/02/2007,2007-05-01,2007,05/02/2007,,OTHERS,1,1,0,0,0,0,0,0,,,,,,0,0,0,0,0,0,0,0,0,0,0,0,0,0,0,0,0,0,0,0,0,0,0,0,0,0,0,0,0,0,0,0,0,0,0,0,0,0,0,,,,,,,,,,,,,,,,,0,
310003144,770 LEXINGTON AVENUE,770,LEXINGTON AVENUE,40.690236,-73.928624,,,3044372,3016270003,BROOKLYN,01627,00035,A1,Alteration,"EXTENSION OF EXISTING 1 STORY FRAME TO 4 STORIES, CHANGE OF OCCUPANCY FROM MANUFACTURING TO HOUSE OF WORSHIP",Other,Assembly: Other,Assembly: Other,F-3,A-3,Disapproved,PLAN EXAM - DISAPPROVED,01/15/2010 12:00:00 AM,08/06/2007,2007,12/10/2008,,,,,,OTHERS,1,4,7000,21915,0,0,0,0,,,,,,0,0,0,0,0,0,0,0,0,0,0,0,0,0,0,0,0,0,0,0,0,0,0,0,0,0,0,0,0,0,0,0,0,0,0,0,0,0,0,,,,,,,,,,,,,,,,,0,
200709475,2044 BENEDICT AVENUE,2044,BENEDICT AVENUE,40.834460,-73.856477,,,2028942,2039320006,BRONX,03932,00064,A1,Alteration,Amend Certificate of Occupancy to reflect change of use of building from CONVENT (J3) TO HOUSE OF WORSHIP (A-3). THERE IS NO REQUIRED CHANGE TO EXISTIN G EGRESS OR BUILDING BULK.,Residential,Residential: 1 & 2 Family,Assembly: Other,J-3,A-3,Permit issued,PERMIT ISSUED - ENTIRE JOB/WORK,03/01/2002 12:00:00 AM,01/17/2002,2002,01/17/2002,01/17/2002,2002-03-01,2002,03/01/2002,,OTHERS,3,3,0,0,1,2,1,0,,,,,,1,1,1,1,1,1,1,1,1,1,1,1,1,0,0,0,0,0,0,0,0,0,0,0,0,0,0,0,0,0,0,0,0,0,0,0,0,0,0,,,,,,,,,,,,,,,,,0,
200801016,1385 COMMERCE AVENUE,1385,COMMERCE AVENUE,40.838047,-73.841402,,,2027289,2038560001,BRONX,03856,00013,A1,Alteration,"CHANGE OF USE, NEW MEZZANINE.",Other,"Industrial, Storage & Utilities",Assembly: Other,B-2,A-3,Permit issued,PERMIT ISSUED - ENTIRE JOB/WORK,05/15/2013 12:00:00 AM,08/01/2003,2003,08/18/2003,09/25/2003,2003-12-01,2003,02/11/2004,,OTHERS,1,1,9908,12492,,1,,,,,,,,,,,,,,,,,,,,,,,,,,,,,,,,,,,,,,,,,,,,,,,,,,,,,,,,,,,,,,,0,
301084528,484 WASHINGTON AVENUE,484,WASHINGTON AVENUE,40.684319,-73.965047,,,3056640,3019780001,BROOKLYN,01978,00017,A1,Alteration,PROPOSED ONE STORY AND CELLAR EXTENSION AND LEGALIZATION OF WORK TO EXISTING CHU RCH,Other,Assembly: Other,Assembly: Other,F-1B,A-3,Permit issued,PERMIT ISSUED - ENTIRE JOB/WORK,08/25/2004 12:00:00 AM,10/03/2000,2000,10/03/2000,11/13/2003,2000-10-04,2000,04/04/2002,,OTHERS,2,2,0,0,,,,,,,,,,,,,,,,,,,,,,,,,,,,,,,,,,,,,,,,,,,,,,,,,,,,,,,,,,,,,,,,,0,
301554324,1054 43 STREET,1054,43 STREET,40.641656,-73.994058,,,3136076,3056020005,BROOKLYN,05602,00051,A1,Alteration,PROPOSED TWO STORY ABOVE EXISTING TWO STORY BUILDING.,Other,"Industrial, Storage & Utilities",Assembly: Other,D-1,A-3,Permit issued,PERMIT ISSUED - ENTIRE JOB/WORK,02/11/2005 12:00:00 AM,12/08/2004,2004,12/15/2004,12/21/2004,2005-02-11,2005,02/11/2005,,OTHERS,2,5,0,0,,5,,,,,,,,,,,,,,,,,,,,,,,,,,,,,,,,,,,,,,,,,,,,,,,,,,,,,,,,,,,,,,,0,
301942897,115 FOSTER AVENUE,115,FOSTER AVENUE,40.627774,-73.976176,,,3128067,3054260006,BROOKLYN,05426,00069,A1,Alteration,FILING TO OBTAIN CERTIFICATE OF OCCUPANCY FOR WORK PERFORMED UNDERALT 548/90. SUPERCEDE ALT 548/90. NO WORK TO BE DONE. ALL WORK COMPLETED. OBTAIN CERTIFICATE OF OCCUPANCY.,Other,Assembly: Other,Assembly: Other,F-1B,A-3,Complete,SIGNED OFF,10/16/2008 12:00:00 AM,04/26/2005,2005,04/27/2005,05/26/2005,2005-06-21,2005,06/21/2005,10/16/2008,OTHERS,2,2,0,0,1,1,0,0,0,2008-10-16,2008-10-16,C- CO,1,1,1,1,1,1,1,1,1,1,1,1,1,1,0,0,0,0,0,0,0,0,0,0,0,0,0,1,1,1,1,1,1,1,1,1,1,1,1,1,,,,,,,,,,,,,,,,,0,
410062195,42-85 HAMPTON STREET,42-85,HAMPTON STREET,40.743667,-73.875377,,,4039278,4015690005,QUEENS,01569,00056,A1,Alteration,"CONVERT EXISTING ONE FAMILY INTO TWO FAMILY DWELLING UNITS WITH VERTICAL EXTENSON. OBTAIN NEW C. OF O. INCLUDING NEW PLUMBING AND NEW PARTITIONS WORK, INSTALL NEW GAS BOILER AND NEW GAS H.W.H. IN CELLAR.",Residential,Medical and other custodial institutions,Residential,H-2,RES,Complete,SIGNED OFF,08/13/2009 12:00:00 AM,02/04/2008,2008,02/04/2008,02/21/2008,2008-10-15,2008,11/06/2008,08/13/2009,1-2-3 FAMILY,0,2,0,0,,2,,,0,2009-08-13,2009-08-13,C- CO,2,,,2,2,2,2,2,2,2,2,2,2,2,,,,0,0,0,0,0,0,0,0,0,0,,,,,,,,,,,,,,,,,,,,,,,,,,,,,,0,
320287729,300 SKILLMAN AVENUE,300,SKILLMAN AVENUE,40.716630,-73.939205,,,3338304,3028850000,BROOKLYN,02885,00001,DM,Demolition,DEMO OF ONE STORY GUARD SHACK,Other,Medical and other custodial institutions,Empty Lot,H-2,,Complete (demolition),SIGNED OFF,10/14/2011 12:00:00 AM,03/28/2011,2011,07/13/2011,07/13/2011,2011-09-09,2011,09/12/2011,10/14/2011,OTHERS,1,0,0,0,6,0,-6,-6,0,2011-09-09,2011-09-09,,,6,6,6,6,6,6,6,6,6,6,6,6,6,0,0,0,0,0,-6,0,0,0,0,0,0,0,12,12,12,12,12,12,12,12,12,12,12,12,12,,,,,,,,,,,,,,,,,0,
420575755,212-14 NORTHERN BLVD,212-14,NORTHERN BLVD,40.759915,-73.770928,,,4156883,4073130001,QUEENS,07313,00015,DM,Demolition,THIS JOB IS FILED FOR DEMOLITION OF A 1 STORY BUILDING. FENCE IS FILED UNDER SEPARATE APPLICATION JOB # 420555349.,Other,Medical and other custodial institutions,Empty Lot,H-2,,Complete (demolition),SIGNED OFF,11/17/2012 12:00:00 AM,06/01/2012,2012,06/01/2012,06/01/2012,2012-08-23,2012,08/23/2012,11/17/2012,OTHERS,1,0,0,0,,0,,,,2012-08-23,2012-08-23,,,,,,,,,,,,,,,,,,,,,,,,,,,,,,,,,,,,,,,,,,,,,,,,,,,,,,,,,,0,
420279978,28-55 216 STREET,28-55,216 STREET,40.776953,-73.770440,,,4133885,4060190000,QUEENS,06019,00005,DM,Demolition,DEMOLISH BUILDING,Other,Medical and other custodial institutions,Empty Lot,H-2,,Complete (demolition),SIGNED OFF,01/24/2011 12:00:00 AM,10/27/2010,2010,10/27/2010,10/27/2010,2010-12-08,2010,12/08/2010,01/24/2011,OTHERS,1,0,0,0,,0,,,,2010-12-08,2010-12-08,,,,,,,0,0,0,0,0,0,0,0,0,,,,,,0,0,0,0,0,0,0,0,,,,,,,,,,,,,,,,,,,,,,,,,,,,,,0,
420829982,75-59 263 STREET,75-59,263 STREET,40.749843,-73.711892,,,4445327,4085200000,QUEENS,08520,00002,DM,Demolition,DEMOLITION OF 1 STORY STRUCTURE,Other,Medical and other custodial institutions,Empty Lot,H-2,,Complete (demolition),SIGNED OFF,10/04/2013 12:00:00 AM,05/09/2013,2013,05/09/2013,05/09/2013,2013-07-15,2013,07/15/2013,10/04/2013,OTHERS,1,0,0,0,1,0,-1,-1,0,2013-07-15,2013-07-15,,,1,1,1,1,1,1,1,1,1,1,1,1,1,0,0,0,0,0,0,0,-1,0,0,0,0,0,2,2,2,2,2,2,2,2,2,2,2,2,2,,,,,,,,,,,,,,,,,0,
121972026,1 MAIN STREET,1,MAIN STREET,40.756368,-73.956054,,,1085548,1013730002,MANHATTAN,01373,00020,DM,Demolition,FULL DEMOLITION OF BUILDING 'A' USING MECHANICAL MEANS.,Other,Medical and other custodial institutions,Empty Lot,H-2,,Complete (demolition),SIGNED OFF,07/13/2015 12:00:00 AM,05/19/2014,2014,05/19/2014,05/19/2014,2014-11-20,2014,11/20/2014,07/13/2015,OTHERS,5,0,0,0,1,0,-1,-1,0,2014-11-20,2014-11-20,,,1,1,1,1,1,1,1,1,1,1,1,1,1,0,0,0,0,0,0,0,0,-1,0,0,0,0,2,2,2,2,2,2,2,2,2,2,2,2,2,,,,,,,,,,,,,,,,,0,
121972785,1 MAIN STREET,1,MAIN STREET,40.756368,-73.956054,,,1085548,1013730002,MANHATTAN,01373,00020,DM,Demolition,"FULL DEMOLITION OF BUILDING 'B', USING MECHANICAL MEANS.",Other,Medical and other custodial institutions,Empty Lot,H-2,,Complete (demolition),SIGNED OFF,07/13/2015 12:00:00 AM,05/19/2014,2014,05/19/2014,05/19/2014,2014-11-20,2014,11/20/2014,07/13/2015,OTHERS,5,0,0,0,1,0,-1,-1,0,2014-11-20,2014-11-20,,,1,1,1,1,1,1,1,1,1,1,1,1,1,0,0,0,0,0,0,0,0,-1,0,0,0,0,2,2,2,2,2,2,2,2,2,2,2,2,2,,,,,,,,,,,,,,,,,0,
121974113,1 MAIN STREET,1,MAIN STREET,40.756368,-73.956054,,,1085548,1013730002,MANHATTAN,01373,00020,DM,Demolition,"FULL DEMOLITION OF BUILDING 'E', USING MECHANICAL MEANS.",Other,Medical and other custodial institutions,Empty Lot,H-2,,Complete (demolition),SIGNED OFF,07/13/2015 12:00:00 AM,05/19/2014,2014,05/19/2014,05/19/2014,2014-11-25,2014,11/25/2014,07/13/2015,OTHERS,4,0,0,0,1,0,-1,-1,0,2014-11-25,2014-11-25,,,1,1,1,1,1,1,1,1,1,1,1,1,1,0,0,0,0,0,0,0,0,-1,0,0,0,0,2,2,2,2,2,2,2,2,2,2,2,2,2,,,,,,,,,,,,,,,,,0,
121978967,1 MAIN STREET,1,MAIN STREET,40.756368,-73.956054,,,1085548,1013730002,MANHATTAN,01373,00020,DM,Demolition,"FULL DEMOLITION OF BUILDING 'D', USING MECHANICAL MEANS.",Other,Medical and other custodial institutions,Empty Lot,H-2,,Complete (demolition),SIGNED OFF,01/06/2015 12:00:00 AM,05/19/2014,2014,05/19/2014,05/19/2014,2014-09-29,2014,09/29/2014,01/06/2015,OTHERS,5,0,0,0,1,0,-1,-1,0,2014-09-29,2014-09-29,,,1,1,1,1,1,1,1,1,1,1,1,1,1,0,0,0,0,0,0,0,0,-1,0,0,0,0,2,2,2,2,2,2,2,2,2,2,2,2,2,,,,,,,,,,,,,,,,,0,
121995243,1 MAIN STREET,1,MAIN STREET,40.756368,-73.956054,,,1085548,1013730002,MANHATTAN,01373,00020,DM,Demolition,"FULL DEMOLITION OF BUILDING 'F', USING MECHANICAL MEANS.",Other,Medical and other custodial institutions,Empty Lot,H-2,,Complete (demolition),SIGNED OFF,01/06/2015 12:00:00 AM,05/19/2014,2014,05/19/2014,05/19/2014,2014-09-04,2014,09/04/2014,01/06/2015,OTHERS,3,0,0,0,1,0,-1,-1,0,2014-09-04,2014-09-04,,,1,1,1,1,1,1,1,1,1,1,1,1,1,0,0,0,0,0,0,0,0,-1,0,0,0,0,2,2,2,2,2,2,2,2,2,2,2,2,2,,,,,,,,,,,,,,,,,0,
121996670,1 MAIN STREET,1,MAIN STREET,40.756368,-73.956054,,,1085548,1013730002,MANHATTAN,01373,00020,DM,Demolition,"FULL DEMOLITION OF BUILDING 'G', USING MECHANICAL MEANS.",Other,Medical and other custodial institutions,Empty Lot,H-2,,Complete (demolition),SIGNED OFF,07/13/2015 12:00:00 AM,05/19/2014,2014,05/19/2014,05/19/2014,2014-11-05,2014,11/05/2014,07/13/2015,OTHERS,2,0,0,0,1,0,-1,-1,0,2014-11-05,2014-11-05,,,1,1,1,1,1,1,1,1,1,1,1,1,1,0,0,0,0,0,0,0,0,-1,0,0,0,0,2,2,2,2,2,2,2,2,2,2,2,2,2,,,,,,,,,,,,,,,,,0,
122001528,1 MAIN STREET,1,MAIN STREET,40.756368,-73.956054,,,1085548,1013730002,MANHATTAN,01373,00020,DM,Demolition,"FULL DEMOLITION OF BUILDING 'H', USING MECHANICAL MEANS.",Other,Medical and other custodial institutions,Empty Lot,H-2,,Complete (demolition),SIGNED OFF,01/06/2015 12:00:00 AM,05/19/2014,2014,05/19/2014,05/19/2014,2014-09-29,2014,09/29/2014,01/06/2015,OTHERS,2,0,0,0,1,0,-1,-1,0,2014-09-29,2014-09-29,,,1,1,1,1,1,1,1,1,1,1,1,1,1,0,0,0,0,0,0,0,0,-1,0,0,0,0,2,2,2,2,2,2,2,2,2,2,2,2,2,,,,,,,,,,,,,,,,,0,
321699792,3213 FARRAGUT ROAD,3213,FARRAGUT ROAD,40.636409,-73.945879,,,3411060,3049960000,BROOKLYN,04996,00001,DM,Demolition,FULL DEMOLITION OF 2 STORY BUILDING,Other,Medical and other custodial institutions,Empty Lot,H-2,,Application filed,APPLICATION PROCESSED - NO PLAN EXAM,12/20/2017 12:00:00 AM,12/20/2017,2017,12/20/2017,12/20/2017,,,,,OTHERS,2,0,0,0,,0,,,,,,,,,,,,,,,,,,,,,,,,,,,,,,,,,,,,,,,,,,,,,,,,,,,,,,,,,,,,,,,0,
220039223,1276 FULTON AVENUE,1276,FULTON AVENUE,40.831721,-73.903756,,,2004246,2026120000,BRONX,02612,00007,DM,Demolition,DEMOLITION OF EXISTING TWO STORY MORGUE BUILDING LOCATED ON BRONX LEBANON HOSPITAL SITE.,Other,Medical and other custodial institutions,Empty Lot,H-2,,Application in progress,PRE-FILING,11/27/2009 12:00:00 AM,11/27/2009,2009,,,,,,,OTHERS,2,0,0,0,0,0,0,0,,,,,,0,0,0,0,0,0,0,0,0,0,0,0,0,0,0,0,0,0,0,0,0,0,0,0,0,0,0,0,0,0,0,0,0,0,0,0,0,0,0,,,,,,,,,,,,,,,,,0,
220092744,4410 3 AVENUE,4410,3 AVENUE,40.852203,-73.892676,,,2094218,2030640000,BRONX,03064,00001,DM,Demolition,FULL DEMOLITION OF A 1 STORY BRICK 5 BAY GARAGE AS PER PLANS FILED HEREWITH.,Other,Medical and other custodial institutions,Empty Lot,H-2,,Complete (demolition),SIGNED OFF,06/24/2011 12:00:00 AM,11/16/2010,2010,12/08/2010,12/08/2010,2011-03-08,2011,03/16/2011,06/24/2011,OTHERS,1,0,0,0,,0,,,,2011-03-08,2011-03-08,,,,,,,,,,,,,,,,,,,,,,,,,,,,,,,,,,,,,,,,,,,,,,,,,,,,,,,,,,0,
220173602,1331 FRANKLIN AVENUE,1331,FRANKLIN AVENUE,40.832539,-73.901315,,,2009712,2029310008,BRONX,02931,00084,DM,Demolition,FULL DEMOLITION OF ONE CAR GARAGE USING MECHANICAL MEANS.,Other,Medical and other custodial institutions,Empty Lot,H-2,,Complete (demolition),SIGNED OFF,07/30/2012 12:00:00 AM,03/12/2012,2012,03/12/2012,03/12/2012,2012-06-12,2012,06/12/2012,07/30/2012,OTHERS,1,0,0,0,1,0,-1,-1,0,2012-06-12,2012-06-12,,,1,1,1,1,1,1,1,1,1,1,1,1,1,0,0,0,0,0,0,-1,0,0,0,0,0,0,2,2,2,2,2,2,2,2,2,2,2,2,2,,,,,,,,,,,,,,,,,0,
520271571,355 BARD AVENUE,355,BARD AVENUE,40.635478,-74.106684,,,5106523,5001020000,STATEN ISLAND,00102,00001,DM,Demolition,FILING HEREWITH DEMOLITION OF THREE STORY BUILDING WITH ATTIC (FITZPATRICK BUILDING),Other,Medical and other custodial institutions,Empty Lot,H-2,,Complete (demolition),SIGNED OFF,10/10/2017 12:00:00 AM,09/02/2016,2016,09/02/2016,09/02/2016,2017-06-27,2017,06/27/2017,10/10/2017,OTHERS,2,0,0,0,,0,,,,2017-06-27,2017-06-27,,,,,,,,,,,,,,,,,,,,,,,,,,,,,,,,,,,,,,,,,,,,,,,,,,,,,,,,,,0,
420586333,49-01 69 STREET,49-01,69 STREET,40.737534,-73.895924,,,4539972,4024350001,QUEENS,02435,00010,NB,New Building,PROPOSED 3 STORY + CELLAR COMMUNITY FACILITY BUILDING,Other,Empty Lot,Assembly: Other,,A-3,Application in progress,APPLICATION PROCESSED-PART-NO PAYMENT,06/28/2012 12:00:00 AM,06/28/2012,2012,06/28/2012,,,,,,OTHERS,0,3,0,9084,0,,,,,,,,,0,0,0,0,0,0,0,0,0,0,0,0,0,0,0,0,0,0,0,0,0,0,0,0,0,0,,,,,,,,,,,,,,,,,,,,,,,,,,,,,,0,
401645911,27-37 27 STREET,27-37,27 STREET,40.769194,-73.923478,,,4006897,4005750002,QUEENS,00575,00029,A1,Alteration,CONVERT EXISTING COMMUNITY FACILITY USE TO RESIDENTIAL USE FROM CELLAR THRU 4TH FLOOR. PROPOSED 1 STORY ADDITION.,Residential,Medical and other custodial institutions,Residential: Multi-Family,H-2,J-2,Complete,SIGNED OFF,02/23/2006 12:00:00 AM,05/30/2003,2003,06/02/2003,08/25/2003,2004-04-30,2004,05/06/2004,02/23/2006,OTHERS,0,4,0,0,,40,,,,,,,,,,,,,,,,,,,,,,,,,,,,,,,,,,,,,,,,,,,,,,,,,,,,,,,,,,,,,,,0,
510013147,256 MOUNTAINVIEW AVENUE,256,MOUNTAINVIEW AVENUE,40.605332,-74.125838,,,5019546,5007630017,STATEN ISLAND,00763,00176,A1,Alteration,PROPOSED HORIZONTAL & VERTICAL ADDITIONTO EXISTING ONE STORY RESIDENCE.,Residential,Medical and other custodial institutions,Residential: 1 & 2 Family,H-2,J-3,Permit issued,PERMIT ISSUED - ENTIRE JOB/WORK,12/19/2007 12:00:00 AM,08/20/2007,2007,08/20/2007,08/20/2007,2007-09-07,2007,09/24/2007,,1-2-3 FAMILY,0,2,0,0,,1,,,,,,,,,,,,,,,,,,,,,,,,,,,,,,,,,,,,,,,,,,,,,,,,,,,,,,,,,,,,,,,0,
103677433,123-5 CENTRAL PARK NORTH,123-5,CENTRAL PARK NORTH,40.798697,-73.953516,,,1054922,1018200002,MANHATTAN,01820,00023,A1,Alteration,CONVERSION OF EXISTING 7 STORY HOSPITAL BUILDING TO COMMUNITY FACILITY &  RESIDENITAL USE. ERECT FOUR ADDITIONAL STORIES.,Residential,Medical and other custodial institutions,Residential: Multi-Family,H-2,J-2,Complete,SIGNED OFF,12/05/2017 12:00:00 AM,12/30/2003,2003,12/30/2003,05/20/2004,2004-07-27,2004,02/04/2005,12/05/2017,OTHERS,0,11,0,0,,17,,,0,2007-01-19,2017-12-05,C- CO,17,17,17,17,17,17,17,17,17,17,17,17,17,17,,0,0,0,0,0,0,0,0,0,0,0,0,,,,,,,,,,,,,,,,,,,,,,,,,,,,,,0,
103760075,312 BOWERY,312,BOWERY,40.724957,-73.992319,,,1008201,1005210007,MANHATTAN,00521,00075,A1,Alteration,Convert existing building to residential. Gut renovation to entire building. Add additional floor area to building and install structural framing as shown on drawings.,Residential,Medical and other custodial institutions,Residential: Multi-Family,H-2,J-2,Complete,SIGNED OFF,11/30/2007 12:00:00 AM,04/07/2004,2004,04/07/2004,04/17/2006,2005-04-06,2005,06/03/2005,11/30/2007,OTHERS,0,5,0,0,,22,,,0,2007-02-28,2007-11-30,C- CO,22,22,22,22,22,22,22,22,22,22,22,22,22,22,,0,0,0,0,0,0,0,0,0,0,0,0,,,,,,,,,,,,,,,,,,,,,,,,,,,,,,0,
110016170,1760 3 AVENUE,1760,3 AVENUE,40.786143,-73.948646,,,1051738,1016250003,MANHATTAN,01625,00033,A1,Alteration,FILING TO CONVERT EXISTING NON-CONFIRMING USE COMMUNITY FACILITY BUILDING (USE GROUP 4) TO DORMITORY BUILDING (USE GROUP 3).,Residential,Medical and other custodial institutions,Residential: Multi-Family,H-2,J-2,Complete,SIGNED OFF,12/06/2011 12:00:00 AM,11/08/2007,2007,11/08/2007,11/09/2007,2007-11-13,2007,11/13/2007,12/06/2011,OTHERS,19,19,0,0,275,424,149,149,0,2008-08-12,2011-12-06,C- CO,424,275,82,82,82,82,424,424,424,424,424,424,424,424,0,-193,0,0,0,342,0,0,0,0,0,0,0,126,-67,-67,-67,-67,275,275,275,275,275,275,275,275,,,,,,,,,,,,,,,,,0,
200748637,111 EAST 210 STREET,111,EAST 210 STREET,40.879885,-73.880481,,,2096399,2033270000,BRONX,03327,00001,A1,Alteration,Obtain certificate of occupancy for the cellar boiler room only.  This building does not have a certificate of occupancy.  This area requires a certificate of o ccupancy because it has high pressure gas and requires an 'A' occupancy group as per the Borough Commissioner.  See box 16,Other,Medical and other custodial institutions,"Industrial, Storage & Utilities",H-2,A,Complete,SIGNED OFF,01/06/2005 12:00:00 AM,08/22/2002,2002,08/22/2002,05/02/2003,2003-07-02,2003,07/02/2003,01/06/2005,OTHERS,0,3,0,0,,,,,,,,,,,,,,,,,,,,,,,,,,,,,,,,,,,,,,,,,,,,,,,,,,,,,,,,,,,,,,,,,0,
201089990,799 EAST GUN HILL ROAD,799,EAST GUN HILL ROAD,40.876080,-73.862313,,,2057709,2046580002,BRONX,04658,00021,A1,Alteration,Change Building Code Occupancy of Existing Non Profit Adult Home from Buiilding Code occupancy H2 to J2.,Residential,Medical and other custodial institutions,Residential: Multi-Family,H-2,J-2,Permit issued,PERMIT ISSUED - ENTIRE JOB/WORK,03/26/2012 12:00:00 AM,11/15/2006,2006,12/21/2006,08/07/2007,2008-07-21,2008,01/13/2009,,OTHERS,0,5,0,0,,160,,,,,,,,,,,,,,,,,,,,,,,,,,,,,,,,,,,,,,,,,,,,,,,,,,,,,,,,,,,,,,,0,
301881426,126 ROGERS AVENUE,126,ROGERS AVENUE,40.672265,-73.953071,,,3330800,3012460001,BROOKLYN,01246,00017,A1,Alteration,"INSTALLATION OF NEW PARTITIONS AND PLUMBING FIXTURES ALL ON FIRST, SECOND AND THIRD FLOORS. IMPROVE MAIN ENTRANCE, REHABILITATION OF EXISTING BUILDINGS; ALSO DEMOLITION OF EXISTING 3 - STORY WOOD FRAME BUILDING AT CORNER OF SITE. THIS APPLICATION IS TO REINSTATE APPROVED  ALT. 1650 / 1988 TO COMPLETE THE WORKS AND OBTAIN THE CERTIFICATE OF OCCUPANCY UNDER THE BIS SYSTEM.",Other,Medical and other custodial institutions,Educational,H-2,G,Disapproved,PLAN EXAM - DISAPPROVED,02/04/2005 12:00:00 AM,12/22/2004,2004,12/22/2004,,,,,,OTHERS,0,3,0,0,,,,,,,,,,,,,,,,,,,,,,,,,,,,,,,,,,,,,,,,,,,,,,,,,,,,,,,,,,,,,,,,,0,
421573899,220-05 HEMPSTEAD AVENUE,220-05,HEMPSTEAD AVENUE,40.712887,-73.734283,,,4230927,4107750000,QUEENS,10775,00003,A1,Alteration,FILING BUILDING AT 22--05 WITH 2 DWELLING UNITS IN CONJUNCTION WITH BUILDING AT 220-03 HEMPSTEAD AVENUE,Residential,Residential: Multi-Family,Assembly: Other,J-2,A-3,Disapproved,PLAN EXAM - DISAPPROVED,11/22/2017 12:00:00 AM,11/15/2017,2017,11/15/2017,,,,,,OTHERS,3,3,2706,2706,2,2,0,0,,,,,,2,2,2,2,2,2,2,2,2,2,2,2,2,0,0,0,0,0,0,0,0,0,0,0,0,0,2,2,2,2,2,2,2,2,2,2,2,2,2,,,,,,,,,,,,,,,,,0,
220078065,3920 PAULDING AVE,3920,PAULDING AVE,40.883616,-73.852852,,,2064836,2048690003,BRONX,04869,00031,A1,Alteration,PROPOSED RENOVATION & ADDITION TO EXISTING CHURCH.,Other,Assembly: Other,Assembly: Other,F-1B,A-3,Permit issued,PERMIT ISSUED - ENTIRE JOB/WORK,07/03/2018 12:00:00 AM,08/18/2010,2010,08/30/2010,09/02/2011,2012-06-12,2012,07/13/2012,,OTHERS,1,2,11353,19677,,,,,,,,,,,,,,,,,,,,,,,,,,,,,,,,,,,,,,,,,,,,,,,,,,,,,,,,,,,,,,,,,0,
122486997,61 CANAL ST,61,CANAL ST,40.714980,-73.992133,,,1003875,1002990003,MANHATTAN,00299,00035,A1,Alteration,"INTERIOR RENOVATION OF EXISTING CHURCH AND STORES, ENLARGE THE STAIRCASE, AND ADDITION OF ELEVATOR. OBTAIN NEW CERTIFICATE OF OCCUPANCY.",Other,Assembly: Other,Assembly: Other,F-1B,A-3,Permit issued,PERMIT ISSUED - ENTIRE JOB/WORK,06/15/2017 12:00:00 AM,08/04/2015,2015,08/04/2015,12/24/2015,2016-03-03,2016,03/03/2016,,OTHERS,3,3,8856,8856,,,,,,,,,,,,,,,,,,,,,,,,,,,,,,,,,,,,,,,,,,,,,,,,,,,,,,,,,,,,,,,,,0,
320362772,100 BAYARD STREET,100,BAYARD STREET,40.719207,-73.948056,,,3332288,3027230000,BROOKLYN,02723,00007,A1,Alteration,ALTERATION TYPE I TO CHANGE THE USE OF THE EXISTING GARAGE TO A DANCE STUDIO AND SOME MINOR PARTITION WORK AS PER PLANS FILED HEREWITH. NO CHANGE IN BULK OR EGRESS ON THIS APPLICATION.,Other,Commercial,Assembly: Other,COM,A-3,Disapproved,PLAN EXAM - DISAPPROVED,02/16/2012 12:00:00 AM,02/03/2012,2012,02/03/2012,,,,,,OTHERS,1,1,14444,14444,,,,,,,,,,,,,,,,,,,,,,,,,,,,,,,,,,,,,,,,,,,,,,,,,,,,,,,,,,,,,,,,,0,
420285934,105-70 VAN WYCK EXPRESSWAY,105-70,VAN WYCK EXPRESSWAY,40.689818,-73.809861,,,4205261,4095950003,QUEENS,09595,00032,A1,Alteration,"INSTALL SPRINKLER SYSTEM AND MINOR CONSTRUCTION WORK FOR EXIST. COMMUNITY FACILITY: HOUSE OF WORSHIP (U.G.4) AS PER PLAN. RESIZE DOORS TO COMPLY WITH ADA STD. OBTAIN NEW C.O. RESOLVE VIOLATION:34853059K, 34853060H, 34853061J.",Other,Retail,Assembly: Other,C,A-3,Permit issued,PERMIT ISSUED - ENTIRE JOB/WORK,07/21/2015 12:00:00 AM,11/09/2010,2010,11/09/2010,04/22/2011,2011-06-07,2011,06/07/2011,,OTHERS,1,1,4800,4800,,,,,,,,,,,,,,,,,,,,,,,,,,,,,,,,,,,,,,,,,,,,,,,,,,,,,,,,,,,,,,,,,0,
320497459,1720 SHEEPSHEAD BAY ROAD,1720,SHEEPSHEAD BAY ROAD,40.585595,-73.951681,,,3247005,3087700001,BROOKLYN,08770,00013,A1,Alteration,HEREWTIH FILING FOR AN AMENDED CERTIFICATE OF OCCUPANCY TO SHOW BOARD OF STAND ARD AND APPEALS EXTENSIONS OF TERMS FOR PHSYCIAL CULTURE.,Other,Assembly: Other,Assembly: Other,F-3,A-3,Permit issued,PERMIT ISSUED - ENTIRE JOB/WORK,05/07/2015 12:00:00 AM,06/20/2012,2012,06/20/2012,01/15/2015,2015-05-07,2015,05/07/2015,,OTHERS,2,2,37363,37363,,,,,,,,,,,,,,,,,,,,,,,,,,,,,,,,,,,,,,,,,,,,,,,,,,,,,,,,,,,,,,,,,0,
320528416,3300 CONEY ISLAND AVE,3300,CONEY ISLAND AVE,40.575607,-73.959463,,,3326880,3086930000,BROOKLYN,08693,00001,A1,Alteration,CHANGE OF OCCUPANCY AND USE FROM LOCKER ROOM TO CLASS ROOM.,Other,Assembly: Other,Assembly: Other,F-3,A-3,Disapproved,PLAN EXAM - DISAPPROVED,08/13/2012 12:00:00 AM,07/31/2012,2012,07/31/2012,,,,,,OTHERS,2,2,45000,45000,,,,,,,,,,,,,,,,,,,,,,,,,,,,,,,,,,,,,,,,,,,,,,,,,,,,,,,,,,,,,,,,,0,
421056804,87-66 150 STREET,87-66,150 STREET,40.706358,-73.806470,,,4207115,4096940003,QUEENS,09694,00034,A1,Alteration,INTERIOR RENOVATION TO CONVERT DOCTOR'S & DENTIST'S OFFICE TO A HOUSE OF WORSHIP.,Other,Commercial,Assembly: Other,COM,A-3,Disapproved,PLAN EXAM - DISAPPROVED,03/17/2015 12:00:00 AM,02/13/2015,2015,02/13/2015,,,,,,OTHERS,2,2,1680,1680,,,,,,,,,,,,,,,,,,,,,,,,,,,,,,,,,,,,,,,,,,,,,,,,,,,,,,,,,,,,,,,,,0,
421090296,37-52 92ND. STREET,37-52,92ND. STREET,40.749447,-73.874796,,,4036408,4014790003,QUEENS,01479,00033,A1,Alteration,BUILDING NEW THIRD FLOOR AND CONVERTING FROM A LEGAL TWO FAMILY TO A LEGAL THREE FAMILY DWELLING.,Residential,Residential,Assembly: Other,RES,A-3,Disapproved,PLAN EXAM - DISAPPROVED,04/17/2015 12:00:00 AM,03/06/2015,2015,03/06/2015,,,,,,1-2-3 FAMILY,2,3,2480,3960,2,3,1,0,,,,,,2,2,2,2,2,2,2,2,2,2,2,2,2,0,0,0,0,0,0,0,0,0,0,0,0,0,1,1,1,1,1,1,1,1,1,1,1,1,1,,,,,,,,,,,,,,,,,0,
